id,name,neighborhood,address,city,state,postal_code,latitude,longitude,stars,review_count,is_open
4mmuMuxPK7glmgmF9mZimg,Venetian Casino Grazie Club Gold Room,The Strip,3355 S Las Vegas Blvd,Las Vegas,NV,89109,36.1214,-115.171,4,4,1
4Azs1HUqi0Nk6s6xB_9jsQ,Shizen Japanese Restaurant,Westside,221 N Rampart Blvd,Las Vegas,NV,89145,36.1757,-115.292,3.5,82,1
61qDFkNrHKzyA9n3dlgcEw,The Carmel Room,Westside,221 N Rampart Blvd,Las Vegas,NV,89145,36.167,-115.281,3.5,60,0
07MpHT8TrGDI_UVktfKMPA,The Salon At Red Rock,South Summerlin,11011 W Charleston Blvd,Las Vegas,NV,89135,36.1553,-115.332,3.5,3,1
0p27EjcNwTI7Ey4K_MNPww,Fatburger,South Summerlin,11011 W Charleston Blvd,Las Vegas,NV,89135,36.1564,-115.334,3,70,1
0WoQQlMXVIDEgI0xNdENKA,Feast Buffet,South Summerlin,11011 W Charleston Blvd,Las Vegas,NV,89135,36.1566,-115.333,3.5,568,1
5uhFmC5IiWkD6OUJMmL3sQ,The Spa at Red Rock,South Summerlin,11011 W Charleston Blvd,Las Vegas,NV,89135,36.1373,-115.352,3.5,72,1
6Vvr7K3fB4oDVBeSBPvvyQ,"Ben & Jerry's Ice Cream",South Summerlin,11011 W Charleston Blvd,Las Vegas,NV,89135,36.1559,-115.334,4,18,1
1FAvxOUOGGyZoYNlAXACag,Dal Toro Ristorante,The Strip,3325 S Las Vegas Blvd,Las Vegas,NV,89109,36.1243,-115.17,2.5,329,0
2RCB307uNxQekVQEr4IrKQ,The Playing Field Lounge,The Strip,3667 S Las Vegas Blvd,Las Vegas,NV,89136,36.1096,-115.173,3,9,1
68vGFIH94olrtPi1kAEYVw,Gordie Brown,The Strip,3667 S Las Vegas Blvd,Las Vegas,NV,89109,36.1097,-115.17,4,118,1
3ajqOW9A7VhResA08I7RTg,Hash House A Go Go,Downtown,1 S Main St,Las Vegas,NV,89101,36.1719,-115.147,3.5,672,1
19umlhmVB9O3njIBfRAe8g,Fiesta Rancho,,2400 N Rancho Dr,Las Vegas,NV,89130,36.2016,-115.195,2.5,89,1
4tWF2w6jP2LNK2xTVNEMFw,"Garduno's of Mexico",,2400 N Rancho Dr,Las Vegas,NV,89130,36.2016,-115.195,3.5,57,1
6t0lSl779B9mkBspmW0syQ,Luxor IMAX Theatre,The Strip,3900 S Las Vegas Blvd,Las Vegas,NV,89119,36.0948,-115.173,2.5,5,0
4eO86WWyUBbsoCro6NrXEQ,Bishop Gorman High School,South Summerlin,5959 S Hualapai Way,Las Vegas,NV,89135,36.0813,-115.316,3,9,1
0YG_kM5caZhtwd6nbnei6A,The Charcoal Room,,2411 W Sahara Ave,Las Vegas,NV,89102,36.1432,-115.175,4,120,1
0K4tCSMV6BqFxOsgZFqfVw,Rocky Mountain Chocolate Factory,,4500 W Tropicana Ave,Las Vegas,NV,89103,36.1027,-115.202,3.5,21,1
5TY6bUT3bbl9aHItiIXXqw,"Big Al's Oyster Bar",,4500 W Tropicana Ave,Las Vegas,NV,89103,36.1026,-115.202,3.5,271,1
6s7uduX1Q1KSjOKvwxYkRA,Koji Sushi Bar and China Bistro,,4500 W Tropicana Ave,Las Vegas,NV,89103,36.1023,-115.202,3.5,90,0
0l_HQpZ4gsR5T6Ejqcgi2Q,The Eddie Griffin Experience,,3700 W Flamingo Rd,Las Vegas,NV,89103,36.117,-115.186,3,27,1
0JJlFunCGdTURUTSHZNmjQ,Tenaya Salon,Northwest,3950 N Tenaya Way,Las Vegas,NV,89129,36.2322,-115.251,4,4,1
09a8Mrd3STr4AxokKgbZHA,Sushi Avenue 2,Northwest,4949 N Rancho Dr,Las Vegas,NV,89130,36.2491,-115.243,4,8,0
4F_7Ihf9FBXCW6PUllXptA,Big League Dreams Sport Park,,3151 E Washington Ave,Las Vegas,NV,89101,36.1792,-115.102,3.5,36,1
4SPd65eJ1K0KiBPvXpo50A,Green Valley Grocery,Westside,7540 Westcliff Dr,Las Vegas,NV,89145,36.1744,-115.259,3,3,1
4NHEIc9GtUXZmGuhFMkmwA,Yogurtland,The Strip,3850 S Las Vegas Blvd,Las Vegas,NV,89109,36.099,-115.175,3,14,1
0XoTT540HMB_5q4Exj8yGA,Four Seasons Hotel Las Vegas,The Strip,3960 S Las Vegas Blvd,Las Vegas,NV,89119,36.0904,-115.174,4.5,395,1
153QMny_1adtMtsf6MP95A,Starbucks,The Strip,3960 S Las Vegas Blvd,Las Vegas,NV,89119,36.0911,-115.174,2,10,1
1h3ysSuSazvXc1aeLiiOew,Subway,The Strip,3950 S Las Vegas Blvd,Las Vegas,NV,89119,36.0885,-115.173,3,5,1
5k2rzQJ_YroCyKsnt63XFg,Texaco Short Line Express Market,Centennial,6390 N Durango Dr,Las Vegas,NV,89149,36.2769,-115.287,1,6,1
2Mp53KxlGeZJkodTuqpVow,Project Pie - MGM,The Strip,3799 S Las Vegas Blvd,Las Vegas,NV,89109,36.1023,-115.169,4.5,383,0
3ZPlK9cFXYsKIVMgdT4yVA,Reviv At Mgm Grand,The Strip,3799 S Las Vegas Blvd,Las Vegas,NV,89109,36.1034,-115.169,4.5,69,1
4Xbzw4L_kpD0SwvyohJBlA,Fresh Start Movers,Southeast,3799 S Las Vegas Blvd,Las Vegas,NV,89123,36.0524,-115.169,4.5,16,1
1QDkd1ay5Mgr4VaTPOIpCA,CIRCUS 1903 - The Golden Age of Circus,The Strip,3655 S Las Vegas Blvd,Las Vegas,NV,89109,36.1124,-115.17,4.5,60,1
0FwTYXU8VvqQiQ174xz5EQ,Gem Optical,Eastside,3300 E Flamingo Rd,Las Vegas,NV,89121,36.1164,-115.103,3,10,1
3sPSc8NBvrkXi7scpRYDLg,Hello Tokyo,Eastside,3870 E Flamingo Rd,Las Vegas,NV,89121,36.1162,-115.09,4,87,0
3MLNXh5KrJmh2FDRXeipmg,Godiva Chocolatier,Southeast,6711 S Las Vegas Blvd,Las Vegas,NV,89101,36.0682,-115.175,4,29,1
6IFURyc3BzRbO0KX3xbMIQ,Schofield Middle School,Southeast,8625 Spencer St,Las Vegas,NV,89123,36.032,-115.128,2.5,4,1
4AgpYGnU6CigknzmMDqlaA,JFK Exhibit,The Strip,3801 S Las Vegas Blvd,Las Vegas,NV,89109,36.0994,-115.171,1,5,1
3iu_3Ip1m4QLTutHdRmc4w,CLIQUE Bar & Lounge,The Strip,3708 S Las Vegas Blvd,Las Vegas,NV,89109,36.1099,-115.175,4,76,1
4OeBE57Hs4WMLOTtT32d1Q,"Bubba D's BBQ",Centennial,6050 Sky Pointe Dr,Las Vegas,NV,89130,36.2715,-115.261,2,16,0
2Hz8dUsUsNMCX6hXfhD4TA,B Bar,The Strip,3131 S Las Vegas Blvd,Las Vegas,NV,89109,36.1266,-115.165,3,12,1
04alYZB3N4gBnzKKOYkFhQ,Air Done Right,,,Las Vegas,NV,89103,36.1104,-115.207,5,41,1
0BA9KyTOis61faFJrnmgZA,The Alternative,,,Las Vegas,NV,88901,36.18,-115.14,5,3,1
0bwQWqTDtGL1O32Kbkyd3Q,Green Orchid Events,Southeast,,Las Vegas,NV,89119,36.0765,-115.153,5,13,1
0C36stkEIwi9aBlWfi72Pg,Expert Carpet Cleaning,Sunrise,,Las Vegas,NV,89101,36.183,-115.091,4,4,1
0cn4zw0_PFoivCFtvCx6jQ,DB Mobile Notary Service,The Strip,,Las Vegas,NV,,36.1147,-115.173,5,3,1
0eI3NAlvfVt4YrWPVZ_HXg,"Floor Seasons, Inc.",Centennial,,Las Vegas,NV,89149,36.2684,-115.296,3.5,3,1
0f3nlMdNpVki1pyHPdV1fQ,Flowers by Donka,,,Las Vegas,NV,89108,36.2031,-115.224,4,5,1
0FSV_rwCR7hWRVNwjv4bNg,Hawkeye Appliance Repair,Northwest,,Las Vegas,NV,89129,36.2331,-115.272,2,17,1
0fuGTfu7afB9dW5UmtFTMA,"Gibson's Canine Classroom",Southeast,,Las Vegas,NV,89119,36.0803,-115.159,4.5,12,1
0H0h7rCTPMItHS6t2yrskw,LV Hot Tubs and Spas,,,Las Vegas,NV,89044,35.9209,-115.165,5,9,1
0IsYZXjAnggWVZh36MquIg,Happy Paws Mobile Grooming,Northwest,,Las Vegas,NV,89129,36.2331,-115.272,5,18,1
0iTPEAfI4td0VmxqMLpX6A,Downtown Details,,,Las Vegas,NV,89103,36.1104,-115.207,5,13,1
0nasWPLtVyIrDi5e0o4Zfg,Magic of Jason Bird,The Strip,,Las Vegas,NV,89109,36.1286,-115.171,3.5,3,1
0pA7gxi3K6_OrDsGrpMb2Q,Less Stress Movers,,,Las Vegas,NV,89108,36.2031,-115.224,4.5,35,1
0pDX7qEqyQc5JOLRtTiA2A,Alpaca Imports at Miracle Mile Shops,Downtown,,Las Vegas,NV,,36.1699,-115.14,2.5,3,1
0Pn3Ao3bmF9blFCBu5B0SQ,"Gary's Mobile Brakes",Northwest,,Las Vegas,NV,89130,36.2577,-115.23,4.5,6,1
0QM26S4PU61g2amiL0Wweg,Dembois Landscape,,,Las Vegas,NV,89103,36.1104,-115.207,3,6,1
0QyfiIrwsCf3scxy02NPqw,Ron Miller Photography,,,Las Vegas,NV,89136,36.175,-115.136,4,6,0
0qYigmDCp5moxqNSiWwviQ,Quality Stitch Custom Embroidery,Southeast,,Las Vegas,NV,89183,35.9987,-115.159,5,12,1
0TTja3wy7WUT32DZDCfg4g,Dog Lover For Hire,Southeast,,Las Vegas,NV,89120,36.0833,-115.1,5,14,1
0vIcSNvMKxpGnEDv2LHq3w,Advanced Home Inspections,Spring Valley,,Las Vegas,NV,89113,36.0564,-115.266,4.5,11,1
0xiw2v8IpF9Zp0UKoEVWZw,Creative Carpet Repair,Spring Valley,,Las Vegas,NV,89148,36.0746,-115.284,3.5,3,1
0yk5GI36jZvPxUcEDJ00PA,Photo Booth by Chandler,,,Las Vegas,NV,88901,36.175,-115.136,5,4,1
0zb1wdN4YN_ti87B_JIseg,Wa Da Pho,Westside,,Las Vegas,NV,89118,36.1469,-115.21,4.5,29,0
104riqnE_J2Rz7VV4K2NCQ,Rock Solid Home Repair,Spring Valley,,Las Vegas,NV,89148,36.0612,-115.29,3.5,3,1
11FeP2hfOQYfQZCtsUjhDQ,The Creations Photo,Spring Valley,,Las Vegas,NV,89148,36.0612,-115.29,5,3,1
14SsCI9wzlAvzZga80dBbA,Ekada Photobooth,Spring Valley,,Las Vegas,NV,89148,36.0612,-115.29,5,8,1
16dpS7uW7FnyN1sO_EO2mQ,Safe Direction Firearms Training,,,Las Vegas,NV,89103,36.1104,-115.207,4.5,15,1
18ol4DIHGnqMMKfDblBLHA,Entry Brite,Southwest,,Las Vegas,NV,89139,36.0402,-115.224,5,6,1
18x6UfcNMk4NMIdfqAMxpw,"Nadia's Little Rascalz",Southwest,,Las Vegas,NV,89178,36.025,-115.243,5,3,1
19YocUr8tYqPGNr7_K5xzg,Vegas Brows,Southwest,,Las Vegas,NV,89141,35.9706,-115.307,5,3,1
1avsYoUD1Vi8iKjPQfrNag,Erica Lynn Makeup,,,Las Vegas,NV,,36.175,-115.136,5,7,1
1aYKH2ea5_dg0bLznqnvQA,LV Taco Catering,,,Las Vegas,NV,89031,36.2608,-115.171,5,3,1
1e8WNj6asZtE2X4HIAEFOA,HVAC Connection,Northwest,,Las Vegas,NV,89120,36.233,-115.247,5,30,1
1EGqfV6kg2dXZ3MCZS0Kog,Mojave Air Conditioning,,,Las Vegas,NV,89030,36.2145,-115.122,4.5,85,1
1EqiwKUWHER4ki_CiC3vvw,The Sin City Shooter,Southeast,,Las Vegas,NV,89119,36.0765,-115.153,5,6,1
1fIHVl8jMn2JxskGt1CcJw,Photography by Ashley Marie,Spring Valley,,Las Vegas,NV,89148,36.0612,-115.29,5,3,1
1iNQJRq8l5x6UcPEK1_NyA,Professional Driving Academy,Northwest,,Las Vegas,NV,89103,36.233,-115.247,5,8,1
1IX1ME591Q0LzbJhXDA9EQ,Chi-Town Hustler,Southeast,,Las Vegas,NV,89123,36.0357,-115.153,3.5,16,1
1JiGtnWQYFcsactL_c3wCw,Service Clean,Southeast,,Las Vegas,NV,89120,36.0833,-115.1,4.5,12,1
1JKJs8SEzx_OGQhFvJKZfQ,Absolutely Elite Appliance,,,Las Vegas,NV,,36.175,-115.136,3,4,1
1keodFkw2ZXQickkcHtw8Q,Day One Electric,Spring Valley,,Las Vegas,NV,89118,36.081,-115.224,4.5,11,1
1O1dELWsvmDulrigGQ5hpQ,Mobile Notary Public,Northwest,,Las Vegas,NV,89129,36.2331,-115.272,5,9,1
1T3UHSPogqoSWPb3i6T8Cw,Cheep Cheep Movers,Southeast,,Las Vegas,NV,89119,36.0765,-115.153,3,25,1
1uDUisf3ro5V3vC60cxfFw,Mr. Cooker,,,Las Vegas,NV,89044,35.9209,-115.165,4.5,47,1
1YL3KWalWH3Jymp7wN0piw,Exclusive Vip Limos,,,Las Vegas,NV,89123,36.2221,-115.142,3,4,1
1Z5L494yNU4ejLHhXaiR7w,Stainmasters Carpet Cleaning,,,Las Vegas,NV,89115,36.3194,-115.023,1,13,1
1ziIZL9P77FrsXS4_NMiDQ,Roman McCarthy Meats,Westside,,Las Vegas,NV,89146,36.1356,-115.23,4.5,3,0
2187MlQ_S3pqcTSAdAgyKw,Rubens Mobile Solutions,,,Las Vegas,NV,,36.175,-115.136,2.5,17,1
21sUIvjh2Yu9q3DqNAXOKg,My Vegas Bachelorette Party,Downtown,,Las Vegas,NV,,36.1699,-115.14,2.5,3,1
24YiWP5NBDMQuEFFRkpnQw,Neda Klimas - Life Coach,Summerlin,,Las Vegas,NV,89128,36.1989,-115.266,5,3,1
25ayGzISIb6tCcygUXvVOw,A Problem Solved Maintenance,Spring Valley,,Las Vegas,NV,89147,36.1148,-115.278,4.5,24,0
2b1iEjZtL3qmhlZiTGmPJw,A Sirius Massage LLC,Spring Valley,,Las Vegas,NV,89147,36.0996,-115.261,5,3,0
2BHReLgbinzeO7rYuxWZ8Q,"Dude Where's my Hotdog",Spring Valley,,Las Vegas,NV,89147,36.1148,-115.278,4.5,19,1
2elbOKyB2yIDWgapAjql8w,Sunrise Appliance Service,,,Las Vegas,NV,89101,36.1697,-115.124,5,3,1
2lFGBYWRK5Dysex7FNhyxA,Drone Pixel,,,Las Vegas,NV,89122,36.1067,-115.041,5,6,1
2q1bO32_geEYjEphTnLVGw,Protect America,Summerlin,,Las Vegas,NV,89128,36.1989,-115.266,1,5,1
2s1JuKtL1jPzM9Tmg13CLA,Senor Blues,Centennial,,Las Vegas,NV,89149,36.2684,-115.296,4,6,1
2TicCWvlAK9xq3tDs3x4Bw,Feng Shui - Design Solutions,,,Las Vegas,NV,89131,36.3656,-115.224,5,13,1
2VwanwGcEsiFXEVxAqNWsQ,Floor Specialists,,,Las Vegas,NV,89131,36.3656,-115.224,5,3,0
2y72hk07f1wvCMitG9lpTg,S.O.S. Appliance Service,Northwest,,Las Vegas,NV,89130,36.233,-115.247,4,7,1
2Zy04tfy3BeUko5HYDB_Nw,Water Heater Paramedics,Summerlin,,Las Vegas,NV,89134,36.2085,-115.313,5,17,1
2_rH2qtwytw5YS3B3p3xhw,Simple Solutions Handyman Services,,,Las Vegas,NV,89142,36.1286,-115.011,5,5,1
31dzkpLmgQImS4RzL_NOmA,Sugar Rush Bakery,,,Las Vegas,NV,,36.175,-115.136,5,4,0
37CcgmovAhRkdOAvnp_tCw,Charm Transportation,Westside,,Las Vegas,NV,89117,36.1453,-115.278,5,3,1
3CKfIgVNkbV9hny_j2cK7w,Angie Lum,Spring Valley,,Las Vegas,NV,89113,36.0564,-115.266,5,9,1
3IJ7MtMDCe5_vPGNpquIeA,Alta Window Cleaning,Northwest,,Las Vegas,NV,89130,36.2577,-115.23,5,41,1
3jpqH5JgrC0RSWuahu15cQ,Plumbing Innovations,,,Las Vegas,NV,89173,36.1157,-115.225,3.5,8,1
3KgNva8wJ1KGQiqSF2G4tg,"KK's Photography",,,Las Vegas,NV,88901,36.18,-115.14,4,20,1
3LtBbiCfZiRd_32RlbQInQ,Megan Trivette,,,Las Vegas,NV,89101,36.1697,-115.124,5,9,1
3MHl5O3p5Hvvz4nmEHTp_g,Las Vegas Teaser Tours,Downtown,,Las Vegas,NV,,36.152,-115.152,5,8,0
3NBFs5Jgk90QLMn0K9WMoA,Dunn Thomas MD,,,Las Vegas,NV,89101,36.1697,-115.124,5,3,1
3nWXxSCR6q7SVxHvsUUeWg,Flavor Bomb LV,Westside,,Las Vegas,NV,89146,36.1356,-115.23,4.5,5,1
3O584Efev0lLCe_2oHz_tA,24/7 Foot Doctor - Podiatry House & Hotel Calls,Southeast,,Las Vegas,NV,89183,35.9987,-115.159,5,20,1
3QBkcmhblBOZ9QRhYtZ9Qw,CannaYoga,Spring Valley,,Las Vegas,NV,89118,36.081,-115.224,5,16,0
3rER1IiWLcWTDbbfcwtW9A,"Lizbeth's Cleaning Services",Summerlin,,Las Vegas,NV,89128,36.1989,-115.266,5,3,1
3saKJZE1cOFJtDDbjf9P2Q,Allegiant Appliance Services,Summerlin,,Las Vegas,NV,89134,36.2085,-115.313,2,4,1
3TSIX1BnjpAzO_hWlE2NSQ,"Keith's Pest Control",Westside,,Las Vegas,NV,89117,36.1453,-115.278,4,5,1
3tYtMqVUm9PxyUDnO5OzTg,Simple Vegas Weddings,Westside,,Las Vegas,NV,89117,36.1453,-115.278,5,9,1
3UaveCUOMVldbds1QMS9sg,Jarrett & Raja MAGIC vs MUSIC,Southeast,,Las Vegas,NV,89109,36.0993,-115.168,4,9,1
3uTMT2vqBdkt2n6zLZt9dw,"John's Quality Welding",Summerlin,,Las Vegas,NV,89128,36.1989,-115.266,5,9,1
3xZYAwewEiwM9uwnjHganA,"Somethin's Cooking",Southeast,,Las Vegas,NV,89123,36.0357,-115.153,5,12,1
3yolGKdiCC6zjlfVUukOLA,Michael M Perez Photography,Summerlin,,Las Vegas,NV,89128,36.1989,-115.266,3,8,0
3z3m1yUqdz1VQ4CDm7gMAg,Monsoon VIP of Las Vegas,Westside,,Las Vegas,NV,89102,36.1463,-115.183,5,8,0
3Z6z5vpin48Irh35lDkrQQ,Vegas Bachelorette Service,Southeast,,Las Vegas,NV,89183,35.9987,-115.159,4.5,3,0
47pVxDs9wZqViN9rDJSf0g,Danube Construction,,,Las Vegas,NV,89103,36.1104,-115.207,5,4,1
48Gm4or2A_PBGN1LhhzRAw,Erics Masonry,Spring Valley,,Las Vegas,NV,89147,36.1148,-115.278,4,8,1
4bl8CF9raynoVoO0E6MBXw,WJMD Services,,,Las Vegas,NV,89031,36.2608,-115.171,5,3,1
4bwD2UsyhhwMLL72UQu3Bg,Aztec Professional Auto Detail,Spring Valley,,Las Vegas,NV,89113,36.0564,-115.266,5,8,1
4cAvZ6YkhDkFKwPtlvrkLg,CMD,Southwest,,Las Vegas,NV,89139,36.0402,-115.224,5,3,1
4d5tVfKMUGSWFdtkBRvH_w,Susie and Will,,,Las Vegas,NV,89044,36.175,-115.136,5,16,1
4eowlTTtmmQ0ehT6hQ5V1A,702 Carpet Cleaning,,,Las Vegas,NV,88901,36.18,-115.14,3.5,3,0
4IM8qHPI_EAw8H40iO6_rg,Lyft,,,Las Vegas,NV,88901,36.18,-115.14,3,88,1
4jAaIWKJxNVihbiQjNw5yQ,DMS Plumbing,Westside,,Las Vegas,NV,89117,36.1453,-115.278,4.5,107,1
4m1qAMQcHx4KzuQzEhaEEQ,Las Vegas Fishing Tours,Spring Valley,,Las Vegas,NV,89113,36.0564,-115.266,1.5,3,1
4TIgLfXMP23Csm0HVU6g3w,DeMille Exterminating,Sunrise,,Las Vegas,NV,89104,36.1497,-115.076,5,4,1
4TR2P1293f86lqRPV8OF5A,Brianna Michelle Beauty,,,Las Vegas,NV,89135,36.11,-115.367,5,30,1
4uqPzrv4QcRydUPHV_168Q,Acepool,,,Las Vegas,NV,89108,36.2031,-115.224,5,11,1
4vBRIypBCE_vGwN_YJwIhQ,WeGoGamez,Spring Valley,,Las Vegas,NV,89113,36.0564,-115.266,5,6,1
4VRbxhqA4oPUgrrtZwvaqg,Sun Sparkling Beauty,,,Las Vegas,NV,89131,36.3656,-115.224,5,3,0
4WVNsBfTtCzfQhCODGWUww,PartyZams Singing Telegrams,Northwest,,Las Vegas,NV,89130,36.2577,-115.23,5,3,1
4XhTZwYS6CDrqFGYU3yfig,Las Vegas Handyman Solutions,,,Las Vegas,NV,89131,36.3656,-115.224,5,8,0
4xJtajvp3lU97GjEFO3FKQ,Crazy Daisies,,,Las Vegas,NV,,36.1778,-115.139,5,7,0
4yaV54FBLvaRCrVQk2Yixg,"Michael Most, DDS",Westside,,Las Vegas,NV,89117,36.1453,-115.278,4,4,1
4YDzojuwciknAszCLe5qEA,The Griffin Mansions,,,Las Vegas,NV,,36.175,-115.136,2,5,0
542ipK0wUacUjO0HgW73yA,Metz Home Inspection,Southeast,,Las Vegas,NV,89119,36.0765,-115.153,4.5,5,1
57YfluRb_8wme_3F4brV6g,Summerlin Hills Pool Service,Summerlin,,Las Vegas,NV,89131,36.1828,-115.295,5,4,1
5A12bfLXQgy53QqqLRW2sw,Monarch Stone and Tile,,,Las Vegas,NV,89128,36.2059,-115.252,5,6,1
5FlgzvUxpOMozhgblpNvpQ,Livinh Events,,,Las Vegas,NV,89101,36.1697,-115.124,5,29,1
5IXqSgZe_LsFeWnemVbAaA,The Roving Reverend,Spring Valley,,Las Vegas,NV,89148,36.0612,-115.29,5,4,1
5jQY9dvSJrhPrOIUtoKhAA,Partial Extreme Scuba Diving,Spring Valley,,Las Vegas,NV,89148,36.0612,-115.29,5,6,1
5MjT_Dxc0VKVbd2NNPNc_A,Candy Cash By Design,Spring Valley,,Las Vegas,NV,89148,36.0612,-115.29,5,5,1
5MnLa1nE606cvNGlSFt01Q,"Ben's BBQ & Smokehouse",The Strip,,Las Vegas,NV,89109,36.1286,-115.171,3.5,22,1
5OVZWHrax1wQaayl8WeTrg,All Access Vip,,,Las Vegas,NV,89101,36.1697,-115.124,4,5,1
5P1qZZU8QKlD9x_dDTsE_Q,Blessed Hands Massage Therapy,Westside,,Las Vegas,NV,89146,36.1356,-115.23,5,3,0
5PhGEN0MlvQ5b_tetyzrsQ,"Dori's Pool & Spa Service",Northwest,,Las Vegas,NV,89129,36.2331,-115.272,2.5,8,1
5UyRAKOWAQaMEEmZ0tzqLg,CasaSalines,Westside,,Las Vegas,NV,89117,36.1453,-115.278,5,4,1
5Vt4PqzWwObmQeuhgMNsDQ,Beauty Extraordinaire,The Strip,,Las Vegas,NV,89109,36.1286,-115.171,5,22,1
5vVkb2n0uUDIj6Y_cBaCsA,ACM Party For A Cause,,,Las Vegas,NV,,36.175,-115.136,4,3,1
629LOsDzWH1fqiHJLD_Iqg,Siegfried and Roy,The Strip,,Las Vegas,NV,89109,36.1286,-115.171,4.5,4,0
67Ax4KKajNCphKwk__M5nA,Las Vegas Dining Tours,Westside,,Las Vegas,NV,89117,36.1453,-115.278,1,3,1
68dFT3p8wWA6jR_zbIEIDQ,Doodad Magic,Summerlin,,Las Vegas,NV,89128,36.1894,-115.273,5,24,1
6afeU36VY6n9Qn0SvoyKAg,Western Funding Inc,Sunrise,,Las Vegas,NV,89104,36.1497,-115.076,1,5,1
6Bc4auxeqhAGAQuguLrfBw,All Day Twice Lock & Key,Northwest,,Las Vegas,NV,89129,36.2331,-115.272,4,14,1
6DJw6yjPCkOOVaK4_dPqng,Michele Sylvester Photography,Southwest,,Las Vegas,NV,89141,35.9706,-115.307,4.5,16,1
6idwaOv7HpxCr_0MZgNTTg,National Home Warranty,Northwest,,Las Vegas,NV,89104,36.233,-115.247,2,60,1
6knQD4JoDj7ngemMmPozlQ,On Demand Sedan & Limousines,,,Las Vegas,NV,89101,36.1697,-115.124,3.5,25,1
6LkNSA3b3dufG5_dKfEQdQ,Southern Kitchen,Downtown,,Las Vegas,NV,,36.1699,-115.14,5,5,1
6NWKsHZPXseo8Ln0exs21A,Clean Works Mobile Blasting Services,,,Las Vegas,NV,89106,36.1923,-115.159,3.5,3,1
6ROKbSSPdvkDxwjW7nVlYA,Wrangler National Finals Rodeo,Downtown,,Las Vegas,NV,,36.1699,-115.14,5,8,1
6TrbiJ2bUvoTulDPHWXmfg,Ultimate Landscaping,Southwest,,Las Vegas,NV,89139,36.0402,-115.224,2.5,5,1
6v44EW03jRyOZDmGIkWnqA,The Acrobat Caddie Girls,,,Las Vegas,NV,89101,36.1697,-115.124,5,7,1
6y5fBRZ_VzA9EVfNm8QViQ,Guided Warriors,Southwest,,Las Vegas,NV,89141,35.9706,-115.307,5,3,1
6yMyEVUemeN9aLz360x1Bg,Express Roadside Assistance,,,Las Vegas,NV,89101,36.1697,-115.124,3.5,3,1
2hyciWHsqnbqdEkUvO3KuQ,Little Crown & Anchor Pub,Chinatown,4755 Spring Mountain Rd,Las Vegas,NV,89136,36.1262,-115.206,3.5,114,1
3uHuoVXDAIoiHotGTHxcbg,The Otheroom,The Strip,3500 S Las Vegas Blvd,Las Vegas,NV,89109,36.1173,-115.176,4.5,54,1
5iAFiMPfitcYDMeII5_dnQ,"Auntie Anne's",The Strip,3200 S Las Vegas Blvd,Las Vegas,NV,89109,36.1277,-115.174,3,18,1
1qTx9z8RMz7RIYKAfnpZ0A,"Lillie's Asian Cuisine",Downtown,129 E Fremont St,Las Vegas,NV,89101,36.1703,-115.145,3.5,88,1
0tWXOKgrO1tAuZhu5X8HNw,Red Mango,Southeast,5757 Wayne Newton Blvd,Las Vegas,NV,89119,36.0808,-115.139,4,13,1
1EnACUiEn9RkK0YU5rvMfA,Volaris,Southeast,5757 Wayne Newton Blvd,Las Vegas,NV,89119,36.0859,-115.131,1,4,1
1ufk_GFAX_5foAZnbM_U6A,McCarran Airport Terminal 1,Southeast,5757 Wayne Newton Blvd,Las Vegas,NV,89119,36.0833,-115.152,3,9,1
2IvrdAb6zdxr3ZqplqJHbg,Jose Cuervo Tequileria,Southeast,5757 Wayne Newton Blvd,Las Vegas,NV,89119,36.0805,-115.147,2,434,1
3zi81XrZYIMjaJnC0JLSsg,TCBY,Southeast,5757 Wayne Newton Blvd,Las Vegas,NV,89101,36.0863,-115.152,3,6,1
5QSkZrMVgt2g64vj88rnoA,Aeromexico,Southeast,5757 Wayne Newton Blvd,Las Vegas,NV,89119,36.0846,-115.154,1,6,1
5_xRD5SmbvbiNYPOA4slHg,Red Star Lounge,Southeast,5757 Wayne Newton Blvd,Las Vegas,NV,89111,36.0844,-115.154,3,5,1
1TTQ41NqKks69GltQSQNIA,Suncoast Hotel & Casino,Westside,9090 Alta Dr,Las Vegas,NV,89145,36.1695,-115.291,3,317,1
5QsW4RdCrDhVuDHnlgnCuA,Carefree Catering,,439 Rock Quarry Way,Las Vegas,NV,89032,36.2219,-115.146,4,11,1
1SE9f6TEV5XhnTuuK01xwA,Wingstop,Eastside,3910 S Maryland Pkwy,Las Vegas,NV,89119,36.1179,-115.137,3,150,1
3vxIqhm2jCVjkUWtmDvTsw,"Raising Cane's",Southeast,7550 S Las Vegas Blvd,Las Vegas,NV,89123,36.0525,-115.172,4,474,1
3DbGpMcYYjOlBmUzr_6Nfw,The Putt Park,Spring Valley,6085 S Fort Apache Rd,Las Vegas,NV,89148,36.0791,-115.298,3,49,0
28s2GZYTehHb1ftgzzvKow,Trendsetters,,3310 S Nellis Blvd,Las Vegas,NV,89121,36.1284,-115.065,5,3,1
0G1y7uV7w1D2uziS4Lt_Dw,Chapalas Mexican Restaurants,Southeast,3331 E Tropicana Ave,Las Vegas,NV,89121,36.0996,-115.104,3.5,153,1
6roYDeCtF1wcXfQ9iaRv7g,Baskin Robbins,Northwest,4906 W Lone Mountain Rd,Las Vegas,NV,89130,36.2478,-115.21,4,19,1
5tBgl7FhkPb67MdOcVXBPg,Swatch Store,The Strip,3790 S Las Vegas Blvd,Las Vegas,NV,89109,36.103,-115.174,4.5,14,1
3krH851t5bCLeksZDKASaQ,L.A. Comedy Club,The Strip,2000 S Las Vegas Blvd,Las Vegas,NV,89104,36.1476,-115.155,4.5,44,1
4mYPOzBokDgz307TW2EIKw,Crafted Buffet,The Strip,2000 S Las Vegas Blvd,Las Vegas,NV,89104,36.1472,-115.156,2.5,159,1
0xAjSfNvZ4zluHpCeBX9Pg,Hugh Hefner Sky Villa,,4321 W Flamingo Rd,Las Vegas,NV,89103,36.1145,-115.196,5,5,1
2GfKCR3S8I2m0iiyEd3sKA,Blue Agave,,4321 W Flamingo Rd,Las Vegas,NV,89103,36.1145,-115.196,1.5,5,0
59YbAeuiz0isJtRNKATTKw,Bacon Bar,Northwest,3520 N Rancho Dr,Las Vegas,NV,89130,36.2235,-115.217,3.5,336,1
5xYk23lz0ktdMvzHtohymQ,Village Pub & Poker,Summerlin,2610 Regatta Dr,Las Vegas,NV,89128,36.2067,-115.268,3.5,77,1
15KIfPDU5IQ07l79Wn1Eew,Panadería y Pastelería Latina,Westside,6122 W Charleston Blvd,Las Vegas,NV,89146,36.1593,-115.225,4,14,1
5zpAZqSrsdltaduk67jOow,Kabuki Dining Bar,Eastside,3949 S Maryland Pkwy,Las Vegas,NV,89119,36.1163,-115.138,4,32,0
4WXGO8RoCTMiNUOzZVPCdg,The Shop,South Summerlin,1505 S Pavilion Center Dr,Las Vegas,NV,89135,36.1556,-115.332,4,3,1
6rjqU2x9A6BErUxh6THz6A,"Vinny-Boy's Italian Market Place",Westside,3620 W Sahara Ave,Las Vegas,NV,89102,36.1458,-115.191,2.5,15,0
3xmfT7l3xNH5LK1dLzfvGw,Fremont Street Experience,Downtown,425 Fremont St,Las Vegas,NV,89101,36.1692,-115.142,3.5,1311,1
0HcUjN6DuipHkaUNfSPDgA,Sprint Store,Southeast,7291 S Eastern Ave,Las Vegas,NV,89119,36.0574,-115.12,5,5,1
0yjLZZx708uJbierAonqQg,"Church's Chicken",Chinatown,4880 Spring Mountain Rd,Las Vegas,NV,89102,36.1265,-115.208,3.5,45,1
6bgjcFOy4WHMyw62_1V9Pw,Panera Bread,Spring Valley,5130 S Fort Apache Rd,Las Vegas,NV,89148,36.0958,-115.297,3.5,199,1
1eyfFwXY0NCS7SMXmgl_Dw,"Bertolini's Authentic Trattoria",Westside,9500 W Sahara Ave,Las Vegas,NV,89117,36.145,-115.302,5,5,0
5D3cAYturwbEqnj52b1Tmw,"PT's",,5355 S Decatur Blvd,Las Vegas,NV,89118,36.0923,-115.208,3.5,34,1
19lr9xcN3Ud0w0UX7bl6Qw,Subway,Centennial,6770 N Durango Dr,Las Vegas,NV,89149,36.2838,-115.287,2.5,24,1
0953KSZ26LmJ7CDacVzpYg,"dd's DISCOUNTS",Eastside,3430 E Tropicana Ave,Las Vegas,NV,89121,36.1009,-115.1,2.5,3,1
4ZZUy_puHjqkv5Z9OO9qKA,Zen Magic,The Strip,3663 S Las Vegas Blvd,Las Vegas,NV,89109,36.1108,-115.171,2.5,4,1
5f3SBBaVoeI4tPgx_MTRHg,"Houdini's Magic Shop",The Strip,3663 S Las Vegas Blvd,Las Vegas,NV,89109,36.1103,-115.169,3,19,1
0ps5B5C6oNaRsGyUJzFCuw,Subway,Downtown,600 Fremont St,Las Vegas,NV,89101,36.1691,-115.139,4,7,1
04_Ci1SQ3lYVRUqKQyqBTw,Las Vegas Country Club,Eastside,3000 Joe W Brown Dr,Las Vegas,NV,89109,36.1344,-115.147,4.5,28,1
1CP8aJa8ILlfM5deroar0Q,Wingstop,,5045 W Tropicana Ave,Las Vegas,NV,89103,36.1003,-115.21,3,135,1
0u7aKx5XsGr7ugRlaCT40A,"Smith's",,4001 S Decatur Blvd,Las Vegas,NV,89103,36.1173,-115.209,3,17,1
4L3VJwVqUareUUIGPE2zcw,Shalimar Restaurant,,4001 S Decatur Blvd,Las Vegas,NV,89103,36.1177,-115.21,3.5,95,1
6GlGdRX8JaG9alaqZAOaTQ,"Arby's",Sunrise,725 N Nellis Blvd,Las Vegas,NV,89110,36.1757,-115.063,4,9,1
1DJNBnnrvdrHcuDgbGlmLQ,Walmart,Sunrise,201 N Nellis Blvd,Las Vegas,NV,89110,36.1648,-115.063,1.5,40,1
6PXjb9T5Iv4STwwdoycrYw,Dulce Donuts,,701 N Decatur Blvd,Las Vegas,NV,89107,36.18,-115.206,4.5,53,1
2YBO1LEKIgyle0uX50u15Q,Noodle Exchange,,4000 W Flamingo Rd,Las Vegas,NV,89103,36.1164,-115.193,3.5,165,1
3SudVNXtmAfmsgD06pqIYw,LuxXpress,,4000 W Flamingo Rd,Las Vegas,NV,89103,36.1165,-115.193,2,5,1
10_xgsQn_RZ0L9XvdDzMIw,The Body Shop,Westside,4300 Meadows Ln,Las Vegas,NV,89107,36.1723,-115.196,5,4,0
2528f7XZuKcTZJWcn6HQtQ,"Tilly's",Westside,4300 Meadows Ln,Las Vegas,NV,89107,36.1723,-115.196,3,4,1
2W9pRClOMAAHnIhLyXlozA,Lane Bryant,Westside,4300 Meadows Ln,Las Vegas,NV,89107,36.1725,-115.197,4.5,17,1
6OHGkQ7u1pZcao_FkiVUuA,Spencer Gifts,Westside,4300 Meadows Ln,Las Vegas,NV,89107,36.1725,-115.197,3.5,6,1
1Lbq92b6B9z1FYk5mS2R9Q,"Big Dog's Cafe & Casino",Westside,6390 W Sahara Ave,Las Vegas,NV,89146,36.1444,-115.233,3.5,67,0
41qxBQnPkMZ2ODeACQ1BBg,Desert Pines Golf Club,,3415 E Bonanza Rd,Las Vegas,NV,89101,36.1705,-115.102,3.5,83,1
3W5VLa5iGkKyvtWehdkIMg,Circle K,University,1212 E Tropicana Ave,Las Vegas,NV,89119,36.1013,-115.137,3,9,1
5XKz4CGyjYD_jzoxlPqRQw,Blueberry Hill Family Restaurant,Downtown,1723 E Charleston Blvd,Las Vegas,NV,89104,36.1592,-115.128,3,11,0
3BVpZewrU4hNfahPHkg4Ag,Evergreen Dental,Chinatown,4355 Spring Mountain Rd,Las Vegas,NV,89102,36.1259,-115.198,2,10,1
1PVFYjySeMsHUYnshzpAGw,Piranha Nightclub,Eastside,4633 S Paradise Rd,Las Vegas,NV,89169,36.1055,-115.152,3,256,1
5QNXZcclknB2PkfeN7FJWQ,The Hush Puppy,Westside,7185 W Charleston Blvd,Las Vegas,NV,89117,36.1585,-115.25,4,313,1
5T0h9YCsXiDZyBsVIN9gcg,Viet Bistro,,7175 W Lake Mead Blvd,Las Vegas,NV,89128,36.1953,-115.248,3.5,323,1
6RXzfIIkpSyGDlZbYy4k3A,uBreakiFix Summerlin,,7175 W Lake Mead Blvd,Las Vegas,NV,89128,36.1955,-115.248,5,39,1
41n0hPBRTHmZLKXAhGx9vA,Escape Lounge,Westside,4213 W Sahara Ave,Las Vegas,NV,89102,36.1441,-115.198,3,6,0
06MlxbtB4ZYeg_ri02RIAQ,El Pollo Loco,Westside,2401 S Decatur Blvd,Las Vegas,NV,89102,36.145,-115.208,2.5,53,1
64HISOipfYS3ORms1Y2BeA,Fanco,Centennial,7950 W Tropical Pkwy,Las Vegas,NV,89149,36.2708,-115.269,2.5,3,1
5ySPRobQHzXgoVOIXZattw,7-Eleven,,1600 N Rancho Dr,Las Vegas,NV,89106,36.1889,-115.186,1,3,1
4k3RlMAMd46DZ_JyZU0lMg,Ramen Sora,Chinatown,4490 Spring Mountain Rd,Las Vegas,NV,89102,36.1265,-115.202,4,1169,1
3EEt7hz9oLceKb_iIziClw,Regal Nails,Southeast,6005 S Eastern Ave,Las Vegas,NV,89119,36.0803,-115.122,3,9,1
5llCyMtS_WyUVKXCtpdaJQ,Starbucks,Downtown,840 S Rancho Dr,Las Vegas,NV,89106,36.1614,-115.173,3,56,1
4lxOj8Kyh6k5hKs8laE6yA,Fm Printshop,Sunrise,4250 E Bonanza Rd,Las Vegas,NV,89110,36.174,-115.083,2.5,3,1
3Nx9NCzMTXC6jFgdk2mDGg,"Charlie's Market Buffet",,4575 Boulder Hwy,Las Vegas,NV,89121,36.1241,-115.076,2.5,14,1
3rj1qpgFvkRWtAka17mhEQ,"Mimi's Cafe",Centennial,6760 N Durango Dr,Las Vegas,NV,89149,36.2829,-115.287,3,209,1
4ZB0RpAhXl9zhjKYRxpJgw,Alternative Junkie,Southeast,9480 S Eastern Ave,Las Vegas,NV,89123,36.0167,-115.118,5,4,0
6TnRokXvED8LkzRK4X1Rsw,Central Church - Summerlin,South Summerlin,2015 S Hualapai Way,Las Vegas,NV,89117,36.155,-115.317,4.5,3,1
01Ov9eDxKRY5k6ImMdiWLQ,Hong Kong Garden Seafood & BBQ Cafe,Chinatown,3407 S Jones Blvd,Las Vegas,NV,89146,36.1272,-115.225,3,166,1
4qG3Gh8QyugC1XvoTlmgcQ,Egg Works,Spring Valley,9355 W Flamingo Rd,Las Vegas,NV,89147,36.1145,-115.296,4.5,604,1
43iDZBs2gYeibNWijRtwyQ,The Cosmetics Company Store,Downtown,875 S Grand Central Pkwy,Las Vegas,NV,89106,36.1638,-115.157,3,14,1
0w3BdEOxvwKTpypwbN5kiQ,Tofu Hut,Chinatown,3920 Spring Mountain Rd,Las Vegas,NV,89102,36.1268,-115.193,3.5,641,1
2PgyKR_A92izBnf2JRVA6w,"Yorky's",Spring Valley,5325 S Fort Apache Rd,Las Vegas,NV,89148,36.0916,-115.298,4.5,26,1
6PqYwabO2g1r2ZB7eImOiw,Olive Garden Italian Restaurant,Northwest,6850 W Cheyenne Ave,Las Vegas,NV,89108,36.2188,-115.244,3.5,183,1
2aoKv8DjAeVBjTT9O9sx5g,"Marriott's Grand Chateau",The Strip,75 E Harmon Ave,Las Vegas,NV,89109,36.1075,-115.169,4,410,1
23JboJ79qZ6cesngiPt4aw,Vegas Girl Wigs,Westside,1717 S Decatur Blvd,Las Vegas,NV,89102,36.1508,-115.206,3,6,1
44WYof8LlBf8b0SPPgE6sw,Baymont Inn And Suites Las Vegas,Southeast,55 E Robindale Rd,Las Vegas,NV,89123,36.0491,-115.169,3,54,1
6UqOXFic_vu2JLGuu8YD6A,Cheers Bar & Grill,University,1220 E Harmon Ave,Las Vegas,NV,89119,36.1081,-115.136,4.5,40,0
1NjEKMltuzp9U4UleGZruQ,The Spa at Tuscany,Eastside,255 E Flamingo Rd,Las Vegas,NV,89169,36.1134,-115.16,4.5,24,1
56Ll9rqG2WxXj4X2pmlkHQ,Sweet Tomatoes,,2080 N Rainbow Blvd,Las Vegas,NV,89108,36.1972,-115.24,3.5,231,1
4I4OoW0tbaoG4I4D2spF3w,Del Taco,Westside,8471 W Sahara Ave,Las Vegas,NV,89117,36.1437,-115.276,3,30,1
6beJGNWviNq_VbODEULexA,Cafe325,Eastside,325 Convention Center Dr,Las Vegas,NV,89109,36.1319,-115.157,3.5,20,1
2smgOPhpYbDT7G5tbVRdiQ,Burger King,,3620 W Tropicana Ave,Las Vegas,NV,89103,36.1013,-115.188,2,17,1
1BtNZszIr8LvtPOhN0X4Mw,Gold Mine Bar & Grill,Eastside,3950 Koval Ln,Las Vegas,NV,89109,36.1179,-115.161,2.5,26,1
3RiFtEJ6AAvS0x_z38HChw,Pita Pit,University,4680 S Maryland Pkwy,Las Vegas,NV,89119,36.1044,-115.137,4,44,0
0R4QFh47DR6M9M0tdyGRyg,Terrible Herbst,Spring Valley,6885 W Tropicana Ave,Las Vegas,NV,89103,36.0993,-115.243,3,4,1
6kQQNdQVYrFS1rs7NqckLg,Our Lady of Las Vegas School,Westside,3046 Alta Dr,Las Vegas,NV,89107,36.1668,-115.182,2,4,1
6Dc8n5zmf2WLrX1Q6yHzxw,Focused Vision Care,Centennial,8080 W Tropical Pkwy,Las Vegas,NV,89149,36.2731,-115.27,4.5,8,1
5EgDTPJNZsmbMG52ixnMXA,Samdae Korean BBQ,,6112 W Flamingo Rd,Las Vegas,NV,89103,36.1161,-115.226,3,6,0
2GQ0DbNf7Wkhws7kFiU_Qw,Wurstle Gourmet Sausages,Southeast,6629 Las Vegas Blvd S,Las Vegas,NV,89119,36.0668,-115.172,2.5,13,0
20htfKeteS2n4KYyVAZF4w,Dunkin Donuts,Centennial,7155 Grand Montecito Pkwy,Las Vegas,NV,89149,36.2915,-115.285,2.5,6,0
4ou7QOA5kpgkxNfN4JJ62g,Cost Plus World Market,,2151 N Rainbow Blvd,Las Vegas,NV,89108,36.1997,-115.244,4.5,68,1
4lAwPgy1m9Rd0oBpi4Hr2w,"McDonald's",Downtown,301 Fremont St,Las Vegas,NV,89101,36.17,-115.143,2,14,1
5rPcuMOjSbKPuYzVLsstQQ,"Papa John's Pizza",Summerlin,10217 W Charleston Blvd,Las Vegas,NV,89135,36.1585,-115.317,2,25,1
1G0C1xuMONSIQS76LMjGyw,"Cheetah's",,2112 Western Ave,Las Vegas,NV,89102,36.1478,-115.166,2.5,70,1
6u_6RV0qDaTQyYqZTzl3XA,Wingstop,Sunrise,400 N Nellis Blvd,Las Vegas,NV,89110,36.1669,-115.062,3.5,80,1
12M1imuxjNJAeDO2QLs9sw,Sally Beauty Supply,Chinatown,3625 S Rainbow Blvd,Las Vegas,NV,89103,36.1231,-115.246,2,19,1
4RXOdkbai8V53Kxkzp0otA,Eyeglass World,Eastside,3350 E Tropicana Ave,Las Vegas,NV,89121,36.1003,-115.102,3.5,46,1
5j7BnXXvlS69uLVHrY9Upw,El Pollo Loco,Downtown,2375 E Sahara Ave,Las Vegas,NV,89104,36.1437,-115.119,3.5,42,1
3Ekl9jefhZP1RpdHf5P3NA,Harsch Investment Properties,Westside,3111 S Valley View Blvd,Las Vegas,NV,89102,36.1319,-115.192,1.5,3,1
4QmwJBk9VPKyO2DfUeIVWg,"Tommy Rocker's Mojave Beach Bar & Grill",,4275 Dean Martin Dr,Las Vegas,NV,89103,36.1121,-115.182,3.5,69,1
48OQw36mJ_xhOvR7duH1kg,Foothills Ranch,Northwest,3377 N Rancho Dr,Las Vegas,NV,89130,36.2199,-115.215,3.5,5,0
0jtRI7hVMpQHpUVtUy4ITw,Omelet House Summerlin,Summerlin,2227 N Rampart Blvd,Las Vegas,NV,89128,36.202,-115.283,4,225,1
3Gw8YcAjo3AcMbtbX1TGSA,Jack In the Box,Downtown,1591 S Main St,Las Vegas,NV,89104,36.1524,-115.154,3,18,1
4VXIS8vpNzEysXZVN5xGDA,Las Americas,Downtown,2319 S Eastern Ave,Las Vegas,NV,89104,36.1452,-115.119,4,55,0
4uMs5UbtIAaHhuKQlQhXEQ,Chicken Now,Southeast,7400 Las Vegas Blvd S,Las Vegas,NV,89123,36.0548,-115.169,3.5,24,1
6ggOlied3TSt0MTMySfnIw,Piercing Pagoda,Southeast,7400 Las Vegas Blvd S,Las Vegas,NV,89123,36.0524,-115.169,4,4,1
12P7GjIoq6oj7qCyJ_c0Ag,Little Caesars Pizza,Northwest,4898 W Lone Mountain Rd,Las Vegas,NV,89130,36.2468,-115.209,2,26,1
4xoU4nfruODY0ODRrQB9Kg,City Stop,Summerlin,1200 N Town Center Dr,Las Vegas,NV,89144,36.1834,-115.31,2.5,3,0
28zOC4_meJp9uMJGKacD0A,Sunglass Hut,Southeast,6593 Las Vegas Blvd S,Las Vegas,NV,89119,36.0686,-115.178,2.5,3,1
0ueq5zB3NqLbh93KYYNIHQ,Thai Grill,,1901 N Decatur Blvd,Las Vegas,NV,89108,36.1941,-115.206,3.5,79,0
1CWMNSTRMejdSyXBG2chNg,Fireside Restaurant & Tavern,Anthem,1785 E Cactus Ave,Las Vegas,NV,89183,35.9995,-115.128,3.5,127,1
05TuVKl9KEYQjROpQuTKhw,Fletcher Jones Toyota Scion,Downtown,3255 E Sahara Ave,Las Vegas,NV,89104,36.1443,-115.105,3,42,0
132qHgL9fAK8F9QOogZc0A,Carvel Ice Cream,Southeast,5715 S Eastern Ave,Las Vegas,NV,89119,36.0853,-115.119,2,5,0
2sjfncn3GNHpKZDAcsm1Uw,Mariscos El Tapatio,Southeast,1195 E Pyle Ave,Las Vegas,NV,89183,36.0061,-115.137,4.5,17,1
1tNVPumjvFErYjvSXbOQ6Q,"Wendy's",Westside,4400 W Sahara Ave,Las Vegas,NV,89102,36.1449,-115.2,2,11,1
1tJdRIuyH9UY_35yfn_uyg,Hot Dog Heaven,Southeast,9770 S Maryland Pkwy,Las Vegas,NV,89183,36.0119,-115.136,3,12,0
5VeKrLlQdJjMmKGwBBvMmw,"Yanni's Gyros",Southeast,9770 S Maryland Pkwy,Las Vegas,NV,89183,36.0119,-115.136,4,184,1
56D2GUAp3lesnYcoilPd6w,Special Nails,Southwest,8544 Blue Diamond Rd,Las Vegas,NV,89178,36.0216,-115.278,2,59,1
6fk7IiZrXWuVqFbUnGybWQ,Pink Nail Spa,Spring Valley,5135 S Fort Apache Rd,Las Vegas,NV,89148,36.0946,-115.297,4,110,1
0Myf2fOlXXNHgIuPZoOlsA,Las Vegas National Golf Club,Eastside,1911 E Desert Inn Rd,Las Vegas,NV,89169,36.1286,-115.125,3.5,58,1
0Nb4piKDUVbedlrakwEUuw,Del Taco,Centennial,7757 N El Capitan Way,Las Vegas,NV,89143,36.3026,-115.285,3,35,1
01SiPgdiOskMC5bUJoyy_g,"Winchell's Pub & Grill",Southeast,199 E Warm Springs Rd,Las Vegas,NV,89119,36.0566,-115.164,4,128,1
5s_f9DAynHW9rSwfOXfUWA,Holiday Inn Express Las Vegas-Nellis,,4035 N Nellis Blvd,Las Vegas,NV,89115,36.2334,-115.063,3,37,1
4NHVQFUBd1ppRPpKIBqn6A,Starbucks,Summerlin,2211 N Rampart Blvd,Las Vegas,NV,89134,36.2015,-115.284,4,6,1
44kd3YdkhXj5XiSPs5XNjQ,FireRock Steakhouse,Centennial,5990 Centennial Center Blvd,Las Vegas,NV,89149,36.2719,-115.263,3.5,586,1
4ZbRwCB9oGibxK21MUZKHA,"Smith's",Southeast,9750 S Maryland Pkwy,Las Vegas,NV,89183,36.0121,-115.134,3,54,1
5EIuCcoHY2evAhFMBV6G6g,Pinot Brasserie,The Strip,3355 Las Vegas Blvd,Las Vegas,NV,89109,36.1218,-115.17,3.5,140,0
4pxIMdUZKS1PsK4aVCOhPQ,Liberace Museum & Foundation,Southeast,1775 E Tropicana Ave,Las Vegas,NV,89119,36.0999,-115.129,4.5,51,0
5n2dA_QqO4c_7pSK0Of6AQ,Fatburger,Sunrise,2845 S Nellis Blvd,Las Vegas,NV,89121,36.1379,-115.066,2.5,41,1
3rFnH0MlGquQApfr4ss13Q,7-Eleven,Eastside,4158 Koval Ln,Las Vegas,NV,89109,36.1135,-115.164,4,17,1
4xfon05LS_K1wLH1ip2rsQ,European Wax Center,Centennial,7080 N Durango Dr,Las Vegas,NV,89149,36.2898,-115.286,4.5,80,1
60XkrUz9p7bYmSlYAdJ56Q,Beauty Center,,7500 W Lake Mead Blvd,Las Vegas,NV,89128,36.1973,-115.258,3,3,1
6i85_hLuAdymNIy01LLl0g,"Sam's Club",Spring Valley,7175 Spring Mountain Rd,Las Vegas,NV,89117,36.1238,-115.249,3,94,1
54WM5coZonA0izd2y04p_A,"Famous Dave's Barbeque",Spring Valley,9695 W Flamingo Rd,Las Vegas,NV,89147,36.1142,-115.304,3.5,201,1
16tWXenJ1wTqugXJU7yiZg,808 Sushi,Southwest,7435 S Durango Dr,Las Vegas,NV,89113,36.053,-115.28,3.5,451,1
3ZHyw0d8mk0HOEP7v4fW1A,Krung Thai Restaurant,,4130 S Decatur Blvd,Las Vegas,NV,89103,36.1145,-115.208,4,197,1
0IPYClNF6pQN3a2hRI_kJg,ARCO ampm,Downtown,3885 E Charleston Blvd,Las Vegas,NV,89110,36.1592,-115.094,3,3,1
6HdzmAatFoB8UDep4n9QIw,IHOP,Spring Valley,5170 S Fort Apache Rd,Las Vegas,NV,89148,36.0951,-115.297,3,82,1
5IrliPDuf_kZadlsSFTYaw,76,Sunrise,3965 E Charleston Blvd,Las Vegas,NV,89104,36.1586,-115.089,1.5,4,1
0DO_MfP9R3XgadkbavmhwQ,Aaron Lelah Jewelers,Spring Valley,4175 S Grand Canyon Dr,Las Vegas,NV,89147,36.1137,-115.307,3.5,33,1
3yJD0xcRuhZA8Bl1liUr_A,The Flying Pig,Northwest,3369 Thom Blvd,Las Vegas,NV,89130,36.22,-115.212,5,3,0
5mair616AhJMpRjbd5z94g,Subway,Westside,2003 S Decatur Blvd,Las Vegas,NV,89102,36.1498,-115.208,3.5,8,1
21sGRVR7HEs_t6PdB9tGMw,"Angelina's Pizzeria",,5750 S Decatur Blvd,Las Vegas,NV,89118,36.0853,-115.207,2.5,177,1
5CWcqiwAlEuH3rgm9JzUnw,Terrible Herbst,,7301 W Lake Mead Blvd,Las Vegas,NV,89128,36.1957,-115.252,2.5,8,1
4jUj7xHIhdHpTrb0ZXSToA,The Coffee Bean & Tea Leaf,University,4550 S Maryland Pkwy,Las Vegas,NV,89119,36.1068,-115.136,4,94,1
5XqlvHsByE4GFgTZtZDXgQ,Indian Bowl Cuisine,University,4550 S Maryland Pkwy,Las Vegas,NV,89119,36.1067,-115.137,4,25,0
6JKMZEn1hauhBxuYF6qQcw,Target,Centennial,6371 N Decatur Blvd,Las Vegas,NV,89130,36.2726,-115.211,3.5,59,1
4V5JYFTWXFlsn36AASjlDQ,Hello Kayla Ranae Nails,Anthem,9310 S Eastern Ave,Las Vegas,NV,89123,35.996,-115.124,5,17,1
4pICa9qPtJj_7OdgU2zRog,"Sam's Club Optical",Southeast,1910 E Serene Ave,Las Vegas,NV,89123,36.0237,-115.127,4,4,1
1BrIPwRhJHOp6yBwjoRtgg,Pink Box Doughnuts,,7531 W Lake Mead Blvd,Las Vegas,NV,89128,36.1956,-115.258,4.5,711,1
44tjMHhONQgSBa0SW3C0zg,Texas Market,Southeast,5020 Broadbent Blvd,Las Vegas,NV,89122,36.0974,-115.03,3,6,1
4aAf2nAr86lcDHzqWSaYuQ,"Alexander's Pizza",Southeast,5020 Broadbent Blvd,Las Vegas,NV,89122,36.0974,-115.03,3.5,83,1
1EIou6y4IZPDMbLBWJPpNA,Seva Beauty,Centennial,8060 W Tropical Pkwy,Las Vegas,NV,89149,36.2723,-115.269,4,5,1
0SEPncFbs68axiz61pWkAA,T-Mobile,Eastside,3528 S Maryland Pkwy,Las Vegas,NV,89169,36.1233,-115.136,1.5,6,1
1Df5WnLX3DqN6ymlhqznaQ,"Roy's Restaurant",Eastside,620 E Flamingo Rd,Las Vegas,NV,89119,36.1152,-115.15,4.5,457,0
0aw3HbxkZ4G7pkPYt10fhA,Olive Garden Italian Restaurant,Sunrise,80 N Nellis Blvd,Las Vegas,NV,89110,36.1605,-115.062,3,109,1
6481ECASNBPi1R7MR4Oouw,Fanda Travel,Spring Valley,9360 W Flamingo Rd,Las Vegas,NV,89147,36.115,-115.295,5,11,1
2bSyNMam79SlwiHwQD6RGg,Subway,The Lakes,2551 S Durango Dr,Las Vegas,NV,89117,36.1439,-115.279,3.5,17,1
5qK5rJxwo0cjP3vTf3lkSA,Little Caesars Pizza,Northwest,6621 W Cheyenne Ave,Las Vegas,NV,89108,36.2178,-115.241,1.5,24,1
41WfL6MGTAXYgRQfNT3dyA,El Pollo Loco,Southeast,7205 S Eastern Ave,Las Vegas,NV,89119,36.059,-115.119,3,33,1
6fKmO2gzGQhzM791H6b4mQ,"Domino's Pizza",Southeast,4966 S Maryland Pkwy,Las Vegas,NV,89119,36.0999,-115.136,2,58,1
1mkBh9tt9BnN6bGKsPGLGQ,Espresso,Southeast,9555 S Eastern Ave,Las Vegas,NV,89123,36.0165,-115.119,3,31,0
4WohksiWorRCAREeT647_A,Cleanbay Cleaners,Southeast,310 E Warm Springs Rd,Las Vegas,NV,89119,36.0577,-115.158,4,25,1
4iLbq_AUiWtsSKHFpG5cbQ,Food Factory,Spring Valley,4140 S Durango Dr,Las Vegas,NV,89147,36.1144,-115.278,4,26,0
6OftN85zwsd_PRxSYhgQCQ,Burger King,Westside,105 S Rainbow Blvd,Las Vegas,NV,89145,36.1737,-115.244,3.5,6,1
5aMVKiH5vODUepTcdj_6Tw,Las Vegas Elks Lodge No 1468,Westside,4100 W Charleston Blvd,Las Vegas,NV,89102,36.1595,-115.196,3.5,4,1
20P1JukOLfR023mnrDeXlw,"Carl's Jr",,7598 Vegas Dr,Las Vegas,NV,89044,36.1891,-115.26,3,23,1
61eY5QRISGo8SZOmgU2p5A,Maple Cleaners,Southwest,11350 Southern Highlands Pkwy,Las Vegas,NV,89141,35.9837,-115.19,3.5,28,1
66jwLkSd6M0cZulZrA3zcw,"Applebee's Neighborhood Grill & Bar",,2070 N Rainbow Blvd,Las Vegas,NV,89108,36.1974,-115.241,2.5,131,1
5JjGTaZkHbbjBrzBODcsAQ,Daisho Sushi,Southeast,7435 S Eastern Ave,Las Vegas,NV,89123,36.0558,-115.12,4,268,1
5uvX6yqie9DpHR7UAiQZtw,"McDonald's",Northwest,7150 W Craig Rd,Las Vegas,NV,89129,36.241,-115.25,3,34,1
2Mrp87DHVyWp1L9CrOckIQ,Hearts Alive Village,Westside,1750 S Rainbow Blvd,Las Vegas,NV,89146,36.1533,-115.243,5,16,1
25uxgxlqp7sW5F15wguyIA,Jack In the Box,Eastside,2550 S Maryland Pkwy,Las Vegas,NV,89109,36.1428,-115.136,2.5,6,1
4MeWIPVAaM73kN9n8qOzhQ,"The Chef's Catering",,3085 S Nellis Blvd,Las Vegas,NV,89121,36.1335,-115.066,4,8,1
35tWXOOJpWB2feUAEJyJyg,Taco Bell,Southeast,8150 Blue Diamond Rd,Las Vegas,NV,89113,36.0429,-115.18,3.5,7,1
4pxK5njPxYHFp7IMEch1Bw,"Wendy's",Southeast,9385 S Eastern Ave,Las Vegas,NV,89123,36.0187,-115.119,2,34,1
0uR48n5SYcLE_DLcjONZPg,"Jimmy John's",University,4800 S Maryland Pkwy,Las Vegas,NV,89119,36.1027,-115.136,4,105,1
42PrKh92uDVJY88Ci44JCQ,Ed Hardy,Downtown,755 S Grand Central Pkwy,Las Vegas,NV,89106,36.1643,-115.157,4,4,0
5md4i4diIWMNYQgHMj_Nbg,Grand Adventures Tours,,5012 Arville St,Las Vegas,NV,89118,36.0986,-115.199,5,85,1
16GzAU3eUAV3owbAGArmvQ,Christian Dior,The Strip,3720 S Las Vegas Blvd,Las Vegas,NV,89109,36.1078,-115.174,4,9,1
3Bh7ipj_F8RacBEfZ3EwuA,Chevron,,1500 W Bonanza Rd,Las Vegas,NV,89106,36.1774,-115.161,3,5,1
45IHzSJj49HJn32G3j6H_A,Wienerschnitzel,Westside,4001 W Sahara Ave,Las Vegas,NV,89102,36.1441,-115.194,1,3,0
1SeD2yu2GDQ_RUQy97tP3A,Homewood Suites by Hilton,Southeast,230 Hidden Well Rd,Las Vegas,NV,89119,36.0648,-115.162,4,59,1
4dKWnMPcFuxQpgoEU8GCeA,Puppy Love,Chinatown,3466 S Decatur Blvd,Las Vegas,NV,89102,36.1268,-115.208,3.5,6,0
36PyJL7VPM6Xd6agqXj5RQ,Hibachi-San,Eastside,3480 S Maryland Pkwy,Las Vegas,NV,89169,36.1259,-115.135,4.5,3,0
1gkJBdrkfdO7rEMml9e2KQ,Llantera Del Norte,,4380 N Lamb Blvd,Las Vegas,NV,89115,36.2396,-115.08,5,4,0
6qP6R78nlAGSahx78DayHQ,Taco Bell,Southeast,2512 E Sunset Rd,Las Vegas,NV,89120,36.0717,-115.116,3.5,18,1
5FFZ8_mhlf4O8g84cjl9og,Aloha A Go Go,Southwest,10670 Southern Highlands Pkwy,Las Vegas,NV,89141,35.9953,-115.207,2.5,9,0
0j7VWa5uGebj_94C1K2i2g,Walmart Supercenter,Southeast,2310 E Serene Ave,Las Vegas,NV,89123,36.023,-115.124,2.5,95,1
4OKs1apDDZ2qvgdz5AXDhw,"Funny's",Northwest,4747 N Rancho Dr,Las Vegas,NV,89130,36.2473,-115.24,2,5,1
0N7ME2xu2Y_rYn5ID7SWcQ,Dollar General Market,,5991 W Cheyenne Ave,Las Vegas,NV,89108,36.2163,-115.225,3,5,1
3Uwi0jRkPSXMMzEnPlT2GQ,Oasis Las Vegas RV Resort,Southeast,2711 W Windmill Ln,Las Vegas,NV,89123,36.0408,-115.178,4,123,1
4RoTEeqB_MNn6yaqZmlZHg,Regal Cinemas Village Square 18,Westside,9400 W Sahara Ave,Las Vegas,NV,89117,36.1474,-115.3,3.5,158,1
0uzQymPVW2l24rpjX9KIBA,KFC,Westside,4420 W Sahara Ave,Las Vegas,NV,89102,36.1448,-115.201,2,22,1
6WE1SLCq_gUzJGQpglYM9A,Pizza Hut,University,4808 S Maryland Pkwy,Las Vegas,NV,89119,36.1026,-115.137,1.5,5,1
2ivGlp_mVzwFaPjatAERXg,Tacos Mexico,Downtown,1205 E Charleston Blvd,Las Vegas,NV,89104,36.1591,-115.136,2.5,35,1
1MrSwj8i2VEBHdp3IsWCpQ,El Fish Taco,Southeast,2457 E Tropicana Ave,Las Vegas,NV,89121,36.0997,-115.118,4.5,112,0
3281FKql3HVOzSVxymjJRg,Frijoles & Frescas,Eastside,2490 E Desert Inn Rd,Las Vegas,NV,89121,36.1301,-115.116,4,32,1
0GY8oQmkk46U6JOVLMbvhA,S&S Salon & Barbershop,,4360 S Decatur Blvd,Las Vegas,NV,89103,36.1106,-115.207,3,8,1
2NsEac9xCBI05bo5l4yI7Q,Hertz Rent A Car,Southeast,7135 Gilespie St,Las Vegas,NV,89119,36.0601,-115.164,2.5,408,1
5874jeQ4BlypNzCJbL0Phg,Alamo Rent A Car,Southeast,7135 Gilespie St,Las Vegas,NV,89119,36.057,-115.168,4,345,1
0RTYIoUN7rtnNSCo7uEdSg,"Dawn L Green, DDS",Eastside,3900 Paradise Rd,Las Vegas,NV,89169,36.1188,-115.154,5,12,1
0QHOkwMc74T35Br83SDizA,"Sugar's",South Summerlin,3700 S Hualapai Way,Las Vegas,NV,89147,36.1218,-115.314,3.5,30,0
15jmBXmNy9s6qVV8OepR1Q,Club Rio,Sunrise,821 N Lamb Blvd,Las Vegas,NV,89110,36.1782,-115.08,3.5,6,1
0dVEWi9R3oHMCdzP_TaPNQ,Family Music Centers,Westside,8125 W Sahara Ave,Las Vegas,NV,89117,36.1425,-115.269,4.5,11,1
1KKR09whUvpJTVIQ2qkWWw,Legend Cleaners,Spring Valley,7250 S Durango Dr,Las Vegas,NV,89113,36.0566,-115.278,2,52,1
0WPXDs4ini3D7jpiy1Daqw,The Market,Downtown,611 Fremont St,Las Vegas,NV,89101,36.1682,-115.139,3.5,104,1
3kN5pNrM82qfNC9zuV0C5A,Bourbon Street,,4405 W Flamingo Rd,Las Vegas,NV,89103,36.115,-115.2,2.5,18,1
60YMDriyoqeimFOjHXCUoQ,Loose Caboose Flamingo,,4405 W Flamingo Rd,Las Vegas,NV,89103,36.115,-115.2,3.5,47,0
2wv9ocE3VS2MbBRany2Zyw,El Pollo Mobile,,621 N Eastern Ave,Las Vegas,NV,89101,36.1753,-115.117,5,28,1
14UPvbDf13zKWim68HsHdQ,Creative Cooking School,Westside,7385 W Sahara Ave,Las Vegas,NV,89117,36.1436,-115.254,1.5,10,0
005XmZKuJZuNbl5tGXc5SA,"Tony Roma's",Downtown,620 E Sahara Ave,Las Vegas,NV,89104,36.1443,-115.146,3,21,0
0dvEpCy7Yh5hDQRDyW1VyA,24 Hour Cleaners,Westside,909 S Rainbow Blvd,Las Vegas,NV,89145,36.1615,-115.244,3,3,0
4WS9os_Dj5nckxeNsva6Vg,Food-4 Less,Sunrise,1955 N Nellis Blvd,Las Vegas,NV,89115,36.1951,-115.064,3.5,3,0
4vm2W7J_ztH0vcX4bKfuXw,Sin Fronteras Tacos,Northwest,4016 N Tenaya Way,Las Vegas,NV,89129,36.2336,-115.251,4.5,135,1
4a9W_7zt8JlOIMITuIyB1Q,Tru Nightclub,Eastside,1700 E Flamingo Rd,Las Vegas,NV,89119,36.1153,-115.13,3,8,1
4a0Z2DnnuOjXVbTdyf9t8Q,Antiques At the Market,Southeast,6665 S Eastern Ave,Las Vegas,NV,89119,36.0682,-115.12,4,37,0
4aGIU5eD6iTsmNqKVvlLOg,"Roberto's Taco Shop",,3435 N Nellis Blvd,Las Vegas,NV,89115,36.2221,-115.063,4,9,0
3tBRBsiTi6JJz3CJ7DcS_w,Skinny Chick Fat Chicken,,3137 Industrial Rd,Las Vegas,NV,89109,36.1327,-115.173,4,13,0
2NBHRrR2srACraKxecHjNQ,Enterprise Rent-A-Car,Eastside,4455 Paradise Rd,Las Vegas,NV,89169,36.1101,-115.154,2.5,3,1
5CJOaZc8Muu8WothauxQ4g,Pizza Forte,Eastside,4455 Paradise Rd,Las Vegas,NV,89169,36.1102,-115.155,3.5,66,1
5s23KRlIGCYyDkheydgRwg,Rock Star Beer Festival,Eastside,4455 Paradise Rd,Las Vegas,NV,89169,36.1101,-115.154,3,7,1
5vdaxnKbMDvWO4Sj9amR5A,AVN Adult Entertainment Expo,Eastside,4455 Paradise Rd,Las Vegas,NV,89169,36.1101,-115.154,3.5,14,1
3ou8_WJbl96KfSG1yvjG_w,U.S. Bank,Spring Valley,10100 W Tropicana Ave,Las Vegas,NV,89147,36.1016,-115.313,2.5,3,1
2VtghgP78OPbPHo0ubPCew,Diversity,University,4700 S Maryland Pkwy,Las Vegas,NV,89119,36.104,-115.136,2.5,11,1
2rrHghWVrJUYrq0I_zLktA,Hostel,Downtown,1322 Fremont St,Las Vegas,NV,89101,36.1647,-115.131,2.5,26,1
2I_qSTehoUFsDNjaqCVxlA,Cafe Moda,Chinatown,3400 S Jones Blvd,Las Vegas,NV,89146,36.1273,-115.224,3,146,1
5cbsjFtrntUAeUx51FaFTg,Agave,Summerlin,10820 W Charleston Blvd,Las Vegas,NV,89135,36.1609,-115.332,3,153,0
5mu4SWwVTgNUXw0lWLaoZw,"Macy's",The Strip,3200 Las Vegas Blvd,Las Vegas,NV,89109,36.1268,-115.171,3.5,120,1
68jn0s0snbO5dhasLaVvDw,Flock & Fowl,The Strip,380 W Sahara Ave,Las Vegas,NV,89102,36.1443,-115.163,4.5,385,1
0Yeb_P24sj6MwG2qmuehkA,"Till's Bar",,344 E Desert Inn Rd,Las Vegas,NV,89109,36.1299,-115.161,4.5,42,1
0IbboCQAEQlROAv5PKKO_Q,Aloha Island Grill,Summerlin,2267 N Rampart Blvd,Las Vegas,NV,89128,36.2012,-115.281,4.5,17,0
1gHrOMPMmqXxGMMkPOyE0Q,Rising Sun Japanese Restaurant & Sushi Bar,Westside,9410 W Sahara Ave,Las Vegas,NV,89117,36.1466,-115.301,3,13,0
0JmCGyAqAK_yVEuZ0ts16w,"Bilbo's Bar & Grill",Westside,8699 W Charleston Blvd,Las Vegas,NV,89117,36.1588,-115.284,2.5,14,0
33Tr0eRki1Yamzleu4GMdw,Rosallie,Spring Valley,6090 S Rainbow Blvd,Las Vegas,NV,89118,36.0781,-115.242,4.5,260,1
2oJqt8ZDyw0WapZ8Zc268Q,Fajitas House,Westside,1745 S Rainbow Blvd,Las Vegas,NV,89146,36.152,-115.244,4,5,0
4V_EncSagOpI_0IuS7vURw,"Long John Silver's",Westside,4675 W Charleston Blvd,Las Vegas,NV,89102,36.1586,-115.205,2.5,12,0
31BSLQveLV7eeIoWNxhTaw,Lj Bar & Grill,Downtown,1243 E Sahara Ave,Las Vegas,NV,89104,36.1445,-115.135,4,4,0
5WghmsZ6sOx0Cd602oEkBA,Kaizen Crossfit,Spring Valley,4520 S Hualapai Way,Las Vegas,NV,89147,36.107,-115.314,4,7,1
3rDzxvhe5CFzeWjvLj92pw,"Brooklyn Billy's",,6620 W Flamingo Rd,Las Vegas,NV,89103,36.1149,-115.237,4,15,0
4NxIM5xpIEem1IkEkz2I7Q,La Cabana,Downtown,526 S Martin L King Blvd,Las Vegas,NV,89106,36.1652,-115.161,3.5,30,0
2sdU3Fq3Wv2XQycJoJQArg,Salo-Salo Grill,Chinatown,3650 S Jones Blvd,Las Vegas,NV,89103,36.123,-115.224,3.5,120,0
5T9llNR4r0NySSApVsNqzw,Factory of Dreams Hall,Southeast,6360 S Pecos Rd,Las Vegas,NV,89120,36.0734,-115.1,5,5,1
1u7fJVL82JEznv76noobVQ,"McDonald's",,4350 N Nellis Blvd,Las Vegas,NV,89115,36.2389,-115.06,1.5,5,1
5XJvYmO0Z6KAA5WwfBKRFg,Coast 2 Coast Bowling Services,,4970 Arville St,Las Vegas,NV,89118,36.0993,-115.199,4.5,7,1
33Ryoh0OVhopQ4zv_ITppw,7-Eleven,The Strip,2202 Paradise Rd,Las Vegas,NV,89104,36.1449,-115.155,3,3,1
1CA4nc3RW8MxRbgpXpcrtg,Steve Madden,Downtown,775 S Grand Central Pkwy,Las Vegas,NV,89106,36.1649,-115.161,3,4,1
1DHPkjDwHBguDZo_HR_ymw,Chengdu Laozao Hot Pot,Chinatown,5740 Spring Mountain Rd,Las Vegas,NV,89146,36.1261,-115.22,3,10,1
0ydy2fdDg6kpGy1dbnHYsQ,Tequila Restaurante,Eastside,360 E Tropicana Ave,Las Vegas,NV,89169,36.1022,-115.157,3.5,57,0
5ma1OUQWy_Ds80xUiP7JPQ,Fuku Burger,Chinatown,3429 S Jones Blvd,Las Vegas,NV,89146,36.1266,-115.225,4,349,1
19S0gFtg5GTX6CkiApJiAQ,Frijoles & Frescas Grilled Tacos,Westside,7000 W Charleston Blvd,Las Vegas,NV,89117,36.1594,-115.252,4,419,1
0MClc59pEqhTht6iB1hwzA,Shannon Smith,Southeast,9550 S Eastern Ave,Las Vegas,NV,89123,36.0153,-115.119,5,9,1
2QbWs3zL31_pRN2xo3obwA,La Sirena,Downtown,2327 S Eastern Ave,Las Vegas,NV,89104,36.1454,-115.118,3,3,0
03hgFWEcDg205hOCnswwiQ,RE Tapas,Southeast,467 E Silverado Ranch Blvd,Las Vegas,NV,89123,36.0121,-115.153,3.5,25,0
1_eNhr53_bTPy11vvVL4Hw,El Tinajon Cuban Food,Eastside,3762 E Flamingo Rd,Las Vegas,NV,89121,36.1154,-115.093,3.5,38,1
47Ce56CE_NnzdmCozdMQng,La Takiza,Eastside,3762 E Flamingo Rd,Las Vegas,NV,89121,36.1155,-115.093,4.5,3,0
48n70P5tb79fFVEcO4l6zg,Piano Man,The Strip,3663 Las Vegas Blvd,Las Vegas,NV,89109,36.1108,-115.172,4.5,8,1
17hVooOxch5apryhBkBdZQ,Marshalls,The Strip,3785 Las Vegas Blvd,Las Vegas,NV,89109,36.1037,-115.173,3.5,20,1
4JH83NBgu0nsoZkMWcRoiA,The Color Run,Downtown,506 Fremont St,Las Vegas,NV,89101,36.1692,-115.14,4.5,5,1
27d6i0AtY0aLINGCrSnL3A,Detail Kings - Tivoli Village,Westside,440 S Rampart Blvd,Las Vegas,NV,89145,36.1686,-115.285,4,18,1
6wscs4h5xwIBh4sSHx9DpA,Club Metro Las Vegas,Downtown,1000 E Sahara Ave,Las Vegas,NV,89104,36.1445,-115.141,4,5,0
6BKHJ528fNyOabaMUbJ7Ig,Express Factory Outlet,Southeast,7400 S Las Vegas Blvd,Las Vegas,NV,89123,36.0543,-115.169,4.5,3,1
6MIWAI3CX2HfGZhmWPHcDw,Blue Water Restaurant & Sports Bar,Southeast,9510 S Eastern Ave,Las Vegas,NV,89123,36.0163,-115.119,3.5,15,0
0zeQRzpO06evIZfcR_aZ5w,Insert Coins,Downtown,512 Fremont St,Las Vegas,NV,89101,36.1692,-115.14,3.5,389,0
3rkxTx8DoZSl7_FryhXCVQ,Jugoo Chinese Restaurant,University,4747 S Maryland Pkwy,Las Vegas,NV,89119,36.1041,-115.138,3.5,34,0
0ifI4JjTKcgfBSQiAnMmsQ,The Mad Greek Cafe,Westside,2330 S Rainbow Blvd,Las Vegas,NV,89146,36.1462,-115.242,3,19,0
2vr2yGIzSehe_ITFamNpyw,Fun Tacos,Westside,2330 S Rainbow Blvd,Las Vegas,NV,89146,36.1462,-115.243,4,80,1
2BbFeotL85cIaBjSq1SWiA,Springs Cafe by Wolfgang Puck,Westside,333 S Valley View Blvd,Las Vegas,NV,89107,36.1681,-115.192,2.5,23,0
29trjLlXb6WZMSarrj0PEg,Myst Night Club,The Strip,3765 S Las Vegas Blvd,Las Vegas,NV,89109,36.105,-115.172,1,7,1
0Z4kxalPa_aGEk1qwoLwPQ,West Wing Cigar Lounge,Spring Valley,4255 S Durango Dr,Las Vegas,NV,89147,36.1121,-115.279,4.5,14,0
4O3IeO7gJOkrBBZ8lHrKxg,Las Vegas / Circus Circus KOA,,500 Circus Circus Dr,Las Vegas,NV,89109,36.1418,-115.166,2.5,33,0
5vPf9ymJuN3TSDCC8qLcPA,Quickie Smog,Spring Valley,4380 S Decatur Blvd,Las Vegas,NV,89103,36.1101,-115.208,5,6,1
8_yIeiC_tyRIlVR2P_OYQw,Las Vegas Athletic Club,Eastside,3830 E Flamingo Rd,Las Vegas,NV,89121,36.1165,-115.09,2.5,57,1
BtBDtt2eN1fMFgUISCd9Eg,The French Style Dry Cleaners,Eastside,3830 E Flamingo Rd,Las Vegas,NV,89121,36.1171,-115.091,4,12,1
asuG7CR94SCF80KeKNsVGg,David Perrico Pop Strings Orchestra,South Summerlin,11011 W Charleston Blvd,Las Vegas,NV,89135,36.1551,-115.335,5,4,1
AzzdGYQDNO252G8Fw7Rygg,Las Vegas Wine & Food Festival,South Summerlin,11011 W Charleston Blvd,Las Vegas,NV,89135,36.1559,-115.333,3,15,1
BnpuVvPy3sfLlkqKCx6Xnw,Grand Cafe,South Summerlin,11011 W Charleston Blvd,Las Vegas,NV,89135,36.1564,-115.334,2.5,329,1
a1fHAf6odmoUxTG8sw1UlQ,Circus Midway Arcade,The Strip,2880 S Las Vegas Blvd,Las Vegas,NV,89109,36.1378,-115.165,3.5,13,1
b78V2YgEGGb4sp0wdbz57g,Adventuredome Theme Park,The Strip,2880 S Las Vegas Blvd,Las Vegas,NV,89109,36.1377,-115.165,3,279,1
bSY97kgQpJ5BrpgW40V1qg,THE Steak House,The Strip,2880 S Las Vegas Blvd,Las Vegas,NV,89109,36.137,-115.165,4,591,1
ai8nfTBNvL579cjIuqZajQ,Manhattan Pizza,Westside,8550 W Charleston Blvd,Las Vegas,NV,89117,36.1599,-115.279,3.5,147,1
bTSTKxHKGoxmBjq_NMrRTA,Exhibitionism - The Rolling Stones,The Strip,3325 S Las Vegas Blvd,Las Vegas,NV,89109,36.1242,-115.168,4.5,4,1
a6ZDQ3prZvEtYNFFYM1t4A,Albertsons,Northwest,7151 W Craig Rd,Las Vegas,NV,89129,36.2382,-115.25,3,29,1
bFUWmRKsCkborKVe6oaA5g,Jack in the Box,Northwest,7151 W Craig Rd,Las Vegas,NV,89129,36.2382,-115.25,3,22,1
APAsM2DPl9FH0sC6jFEaXQ,Snacks,The Strip,3600 S Las Vegas Blvd,Las Vegas,NV,89109,36.1138,-115.176,3,52,1
93dkMGSEW8U2mjxMvYl2Bw,The Pool At the Orleans Hotel,,4500 W Tropicana Ave,Las Vegas,NV,89103,36.1035,-115.201,4,4,1
7qFtiPg0gdbk911_mj6LoA,The Broiler,,4111 Boulder Hwy,Las Vegas,NV,89121,36.1337,-115.085,4,75,1
9hNuOUywLPHdSbAXtQ9DhQ,Slices Pizzeria,,4111 Boulder Hwy,Las Vegas,NV,89121,36.1337,-115.085,3,10,1
939j88ceB05Te3D7kQPwSA,VooDoo Rooftop Nightclub & Lounge,,3700 W Flamingo Rd,Las Vegas,NV,89103,36.1163,-115.186,3.5,476,1
A8IouaHOlMHoVIRuAKbKzA,Wine Cellar & Tasting Room,,3700 W Flamingo Rd,Las Vegas,NV,89103,36.1169,-115.186,4,64,1
al65IrHw8M8EvDoFVK7jeg,Defcon,Centennial,3700 W Flamingo Rd,Las Vegas,NV,89103,36.2726,-115.225,5,3,1
7EZ4Eu7YJ1ltRCC5jXFJrQ,The Buffet At TI,The Strip,3300 S Las Vegas Blvd,Las Vegas,NV,89109,36.1248,-115.172,2.5,712,1
8guV6WfhUtASpNhNsd945g,Starbucks,The Strip,3300 S Las Vegas Blvd,Las Vegas,NV,89109,36.1246,-115.172,2,60,1
A2pZTpFXWC38z506XIhnBQ,Wingstop,Northwest,4949 N Rancho Dr,Las Vegas,NV,89130,36.2497,-115.245,3.5,51,1
AGSJRuSF_VF3rMYhgyyxSw,Chrome Showroom at Santa Fe Station,Northwest,4949 N Rancho Dr,Las Vegas,NV,89130,36.2499,-115.244,3.5,10,1
b6tAZqygSsmNW2P4GpHb9g,Zales Outlet,Downtown,855 S Grand Central Pkwy,Las Vegas,NV,89106,36.1629,-115.158,3.5,8,1
8b5ll2kjXfjgFIqWsjkr8Q,Seabreeze Cafe,The Strip,3950 S Las Vegas Blvd,Las Vegas,NV,89119,36.0908,-115.177,3,88,1
94mHPEWCqcHULzEfhvcl9Q,Starbucks,The Strip,3950 S Las Vegas Blvd,Las Vegas,NV,89109,36.0933,-115.176,2.5,53,1
A_CXVdyJCE6nyxwbd6fNwg,Libertine Social,The Strip,3950 S Las Vegas Blvd,Las Vegas,NV,89119,36.0908,-115.177,4,179,1
71aOEuRuypjW4tqmTr4A3g,Dollar Rent A Car,The Strip,3799 S Las Vegas Blvd,Las Vegas,NV,89119,36.1034,-115.169,1.5,8,0
8LNrYqpsGlgRRpEiq9JWGg,Level Up Las Vegas,The Strip,3799 S Las Vegas Blvd,Las Vegas,NV,89109,36.1022,-115.17,3,31,1
aoXfMlw7yh2q2s6t1iPDNw,Signature Bar,The Strip,3475 S Las Vegas Blvd,Las Vegas,NV,89109,36.1193,-115.172,2,3,1
bOOgAB_CEWWsxalAthnRSw,Tenors of Rock,The Strip,3475 S Las Vegas Blvd,Las Vegas,NV,89109,36.1193,-115.172,4.5,46,1
8RYxXVeYvXpfFmBTcqbY4g,X Comedy,The Strip,3555 S Las Vegas Blvd,Las Vegas,NV,89109,36.1157,-115.171,4,39,1
7ecNL_K0X9bCRAXoOnXycA,Sin City Beer Festival,The Strip,3801 S Las Vegas Blvd,Las Vegas,NV,89109,36.1003,-115.173,2,4,1
BhCAVw284KrfM6XQVAxv1A,Lucky Cat,The Strip,3708 S Las Vegas Blvd,Las Vegas,NV,89109,36.1099,-115.175,5,3,0
83C5ysOCnmNGB_fDsVdr9Q,Brothers Italian Bistro,Centennial,6050 Sky Pointe Dr,Las Vegas,NV,89130,36.2715,-115.261,2.5,33,1
AuQVBRfMYQIxbgNOnhlh5Q,Shoe In,,3131 S Las Vegas Blvd,Las Vegas,NV,89136,36.175,-115.136,4.5,10,1
7Dwo13ZxVBKkBuRhYEBMiw,E Nails,Northwest,4588 N Rancho Dr,Las Vegas,NV,89130,36.2434,-115.235,5,12,1
ayT30_GPYHqnrDhBe3IySQ,Life Cafe,Summerlin,10721 W Charleston Blvd,Las Vegas,NV,89135,36.1581,-115.328,3,7,1
6yWUkU0JK5M5iKs8SO7sVg,Makeup by Hafsa,Southeast,,Las Vegas,NV,89119,36.0831,-115.151,5,5,1
70WjV89Z3DgsZvGDMYQf0g,Two Heads Studios Caricature Entertainment,Southwest,,Las Vegas,NV,89139,36.0402,-115.224,5,10,1
71Ei77xwmYoHlZDbPfezYQ,The Gypsy Mobile Minister,Centennial,,Las Vegas,NV,89149,36.2684,-115.296,5,6,1
72LIW8U_EfytHYdGHGqPtw,Fowler Electric,Southwest,,Las Vegas,NV,89139,36.0402,-115.224,5,3,1
75lNzRwmjHpuMwSaNxrMBw,Muncheeze,The Strip,,Las Vegas,NV,89109,36.1286,-115.171,3,18,0
78SftdHMXEHdQVs24z39fw,Dj Elit3,Southeast,,Las Vegas,NV,89183,35.9987,-115.159,5,7,1
7awnzyrh7OVHJ20j5uWcGQ,Venom Pest Management,Southeast,,Las Vegas,NV,89123,36.0357,-115.153,4,4,1
7EXHulOsuo2BP0yLKI_P_A,Mechanical Bull Rentals,The Strip,,Las Vegas,NV,89109,36.1286,-115.171,5,3,1
7Fkv_O4_xChZ62yzxgUcbw,A Affordable Babysitting,Westside,,Las Vegas,NV,89102,36.1463,-115.183,4.5,3,1
7kiieQvq4yTPPbSnbQ6R7w,Beck N Call Mobile Concierge,,,Las Vegas,NV,88901,36.175,-115.136,4,5,1
7lNTKlVqePCTFVPoCSjUJg,Eviction King Of Las Vegas,Southwest,,Las Vegas,NV,89141,35.9706,-115.307,4,7,1
7maHW53GXG6Kfi8SeTaLQw,Southwest Gas Corporation,Southeast,,Las Vegas,NV,89193,36.09,-115.15,1.5,45,1
7mYxQ7Nq_4EbMIxGzisWAw,Super Service Cooling and Heating,Southwest,,Las Vegas,NV,89178,36.0457,-115.313,5,31,1
7ODlGu50ZnvTnLY7FePm7w,Amanda B. Weddings & Events,,,Las Vegas,NV,89044,36.1009,-115.181,5,3,1
7tqDSf2wJ1BrLDSfhhJitA,Islandtucky Fried Chicken,,,Las Vegas,NV,89101,36.1697,-115.124,4.5,24,1
7VDCmKUGQKDri2YF4o396g,XIS Productions,Spring Valley,,Las Vegas,NV,89147,36.1148,-115.278,4,5,1
7ydiBtBEkjvg5dOvz03fpw,City Garage Door,Northwest,,Las vegas,NV,89123,36.233,-115.247,4.5,14,1
824TPhxyn64v1__rmjxttA,Lolo Fuzion,Downtown,,Las Vegas,NV,,36.1699,-115.14,2.5,3,1
82iqBtE1jDB1P_p9ZYHr5w,Magnets LV,,,Las Vegas,NV,88901,36.18,-115.14,5,8,1
84D7t2d3PNFWr4kCZbQb4g,"Bonita's Beauty Bar",Northwest,,Las Vegas,NV,89129,36.2331,-115.272,5,3,1
88qRIXScLQWn1ecabs4PDQ,Custom Cycle Rescue,,,Las Vegas,NV,89135,36.11,-115.367,5,4,1
8b5Y_aF4uhPNnK77meNELA,Yellow Scooters,,,Las Vegas,NV,,36.175,-115.136,2.5,3,1
8gFp8ybUSChA5gy53GHEbw,Babaloons & Toons Singing Telegrams,The Strip,,Las Vegas,NV,89109,36.1286,-115.171,5,4,1
8Gi91EkhG2_CJLk_WqjpEg,Marlin Maid Services,Westside,,Las Vegas,NV,89180,36.13,-115.24,1.5,7,1
8kQCCX_ON_NmOEQc1u12DQ,2-15 Landscaping,Summerlin,,Las Vegas,NV,89135,36.1601,-115.35,3,6,1
8LwmpKOqeGkB6XnpTJNiCg,Absolutely Spotless,,,Las Vegas,NV,89103,36.1104,-115.207,3.5,28,1
8NxVv4jW_3Kh1NKJZkUXDw,Balloons N Beyond Las Vegas,Spring Valley,,Las Vegas,NV,89113,36.0564,-115.266,5,5,1
8r2dbRsNof0fQDNFppxM8w,Towers Massage,,,Las Vegas,NV,89103,36.1068,-115.182,5,6,1
8SVJcTatNsro7wtFNYkbmw,Sin City Birth,Southwest,,Las Vegas,NV,89141,36.0049,-115.226,4.5,8,0
8SvTTiT0rY3n0CvWagMsyA,Unique Destinations & Events,Southwest,,Las Vegas,NV,89178,36.0457,-115.313,4.5,15,1
8T0SdZbbfBI6B3o2uDIJuA,"It's Just Lunch",Eastside,,Las Vegas,NV,89169,36.1295,-115.133,3,4,1
8t4RND0dQhO0MBvyuMVkKA,Engine 1 Pizza,,,Las Vegas,NV,89106,36.1923,-115.159,4,12,1
8U8Z_miKsZXfdW68zeoyhw,Bark Gallery,The Strip,,Las Vegas,NV,89109,36.1286,-115.171,5,6,1
8W7oiSBeeRyrnfTHn3HdSg,Justin & Aimee Photography,Southeast,,Las Vegas,NV,89183,35.9987,-115.159,5,5,1
8XW7AEuMgPuQVy9z5GQwTg,Weston Philpot III Insurance,Centennial,,Las Vegas,NV,89131,36.3081,-115.279,3,4,1
8z5yR4GrOmdhy9RvNt_Djg,TastyBunz,Spring Valley,,Las Vegas,NV,89148,36.0612,-115.29,3.5,55,0
976UWTK9AgW3ZklFSsg2sQ,Pony Party Time,Southwest,,Las Vegas,NV,89141,35.9706,-115.307,5,14,1
9B9rmmyvI7uWx9C_BFU59A,Smokeit BBQ & Catering,,,Las Vegas,NV,89105,36.0566,-115.065,5,4,1
9ffhtZhp7RclEJM0OHnGPA,Anthem Blue Cross and Blue Shield,Spring Valley,,Las Vegas,NV,89148,36.0825,-115.291,1.5,9,1
9GE2TFciTRClirM0xWoK2Q,Ethel M Chocolates,Westside,,Las Vegas,NV,89107,36.1688,-115.219,3.5,7,0
9hK4b2ElsfgQq2vNUDTraA,Ladybug Cleaning Co.,,,Las Vegas,NV,89103,36.1104,-115.207,5,9,1
9IrqwIJPkWFEup49zXAj_A,Frida Lily Photography,Southeast,,Las Vegas,NV,89123,36.0357,-115.153,4.5,3,1
9ivLod6oyfQiB_Ifok0Zlg,Lambda Business & Professional Association,,,Las Vegas,NV,89101,36.1697,-115.124,3,3,0
9JtYNkSvwwxL00YB54_NlA,"Alexander's Handyman Services",The Strip,,Las Vegas,NV,88901,36.1147,-115.173,5,5,1
9kv2vzacBCzZh2QMwxQIZA,Weddings Las Vegas,,,Las Vegas,NV,88901,36.18,-115.14,4,4,1
9Nl2ru5ICe1IUGKdY2fRgw,Bella Leigh Photography,Southwest,,Las Vegas,NV,89141,35.9706,-115.307,5,9,1
9nTIA2ABHJi_BseGK8ycBg,Photobetty Photography,,,Las Vegas,NV,89044,35.9209,-115.165,5,5,1
9PtIKjtBk2r6PbI0exrnhQ,Cynthias Canvas,,,Las Vegas,NV,89052,35.9526,-115.023,5,4,1
9snkLH2CozYgjICyqAAGkg,Ods Airport Shuttle,,,Las Vegas,NV,89101,36.1697,-115.124,1.5,17,1
9u8JdGFXRn2iHnO8pIY_JQ,Aracelli Zea Cake Studio,Sunrise,,Las Vegas,NV,89104,36.1497,-115.076,5,18,0
9XfA7NMNKkGbH7yXc8G75A,King Key Locksmith,Spring Valley,,Las Vegas,NV,89147,36.1082,-115.286,5,243,1
9ZDfXwG2dPN6lbKpWkAnsA,GFY Burgers and Fries,Southeast,,Las Vegas,NV,89120,36.0833,-115.1,4,6,1
9zuX4R5PnCgOEvin557e5w,"Ben's TV Repair",,,Las Vegas,NV,89074,36.0376,-115.076,4.5,48,1
9_P2oM43QIRze2VJpw_dHw,A La Mode,Centennial,,Las Vegas,NV,89149,36.2684,-115.296,4.5,21,0
a26ClXx6Z3U76qLWruyy5A,V & L Services,,,Las Vegas,NV,89103,36.1104,-115.207,5,4,0
a2leVC69VaflWRREkr7RNg,A1 Garage Door Repair,Southeast,,Las Vegas,NV,89119,36.0765,-115.153,4.5,135,1
A9j4O8qGgOxwdLwom98w_A,Mehndika Joey Henna,Northwest,,Las Vegas,NV,89129,36.2353,-115.264,4.5,11,1
admjbox2g1d7VrT3RKOW6A,Helloxmary,Southwest,,Las Vegas,NV,89139,36.0402,-115.224,4.5,19,1
ADqMpDJbxYjNyx6OgMTlyA,3Dstereo.Com,,,Las Vegas,NV,89101,36.1697,-115.124,2.5,3,1
aEfDHeCHItK2hNXJYcsxVg,Sin City Balloons,,,Las Vegas,NV,89122,36.1163,-115.048,4.5,9,1
AefKwOQvF6ez_VonNC88CA,AGR Windshields,Southwest,,Las Vegas,NV,89139,36.0402,-115.224,5,23,1
AgCjLmpKJ1FdxB1PvF3eQw,American Homes 4 Rent,,,Las Vegas,NV,,36.175,-115.136,1,3,1
ahP16oqsq6G1wQBpRx44nA,Pro Tree,,,Las Vegas,NV,89136,36.175,-115.136,4,10,1
aJP6RULQpKyvgldLJVGU_Q,MBB Productions,,,Las Vegas,NV,88901,36.18,-115.14,5,3,1
AJWrjfJ0GcR5ar2oU4gbow,Two Boxers Mobile Detailing,Summerlin,,Las Vegas,NV,89144,36.178,-115.313,5,28,1
AlGJCDUJ7EA797DsRCdeiQ,Ultimate Lawn Maintenance,Southwest,,Las Vegas,NV,89139,36.0402,-115.224,4.5,184,1
AlJb9RiC0UO_OTy9GbpG8A,Newborn Angel Care,The Strip,,Las Vegas,NV,89109,36.1286,-115.171,5,4,1
AlkP3gE16jH27VqinMHkmg,AA Abel Mobile Auto Techs,,,Las Vegas,NV,89101,36.1697,-115.124,3.5,9,1
AnBIIqzFTO4jZ6z_uI36Kw,On Cue Billiards,Southeast,,Las Vegas,NV,89119,36.0765,-115.153,5,64,1
aoVSkcCsScirojnEkZn0OQ,Lifestyle Vegas Club Tours,Summerlin,,Las Vegas,NV,89128,36.1989,-115.266,2.5,3,1
APc7o7VlUVqdvsJSdHaI4w,The Lil Things,,,Las Vegas,NV,,36.175,-115.136,5,6,1
aq_x3Gsflfvd0kwmQxRxoA,Escape Las Vegas Tours,The Strip,,Las Vegas,NV,89109,36.1286,-115.171,4.5,3,1
arFuKbkjzRNUY5Iqh3jeaA,Set&Fury - Las Vegas Hair and Makeup Artists,Downtown,,Las Vegas,NV,,36.1699,-115.14,5,4,1
aRUhNsmKqpYbyE_FNOHVFw,The Furniture Repair Guy,,,Las Vegas,NV,,36.175,-115.136,4,14,1
aSgkAssOTsC20SeKEFiung,Kool Mac,,,Las Vegas,NV,89133,36.18,-115.14,5,8,1
AT4cfxVgGIy8vKY66ApU7g,ABC Valet,,,Las Vegas,NV,89101,36.1697,-115.124,5,5,1
AuYHfT9Y0QEeu0hrZic0xg,Worlds Best Corndogs LV,,,Las Vegas,NV,89166,36.4303,-115.521,4.5,76,1
Au_1b_Sbquv4pAksbJY9FQ,Starry Eyed Events,,,Las Vegas,NV,89011,36.1036,-114.94,5,7,1
AVg8Wg1MPk9CfYCbth9JDw,Events By Juls,,,Las Vegas,NV,89135,36.11,-115.367,5,5,1
aX3JBA7ocisGpgNhw6ZoiQ,Kakes 4 Dayz,Westside,,Las Vegas,NV,89102,36.1463,-115.183,5,4,1
aXSXy6Iwzl7NsC0_V3WDCQ,Lush Floral,,,Las Vegas,NV,89052,35.9526,-115.023,5,12,1
B0tuAmCiBRm66bqKV5IehA,Admiral Point II Homeowners Association,Westside,,Las Vegas,NV,89145,36.1683,-115.266,2.5,3,1
b2pJldRvuuQYUMYWiRBRFg,Fix-a-Chip Auto Glass,Sunrise,,Las Vegas,NV,89110,36.1679,-115.041,4.5,14,1
B2QP5WHYYNftr7CZPJZKVg,Games2U,,,Las Vegas,NV,89012,36.0416,-114.982,5,4,0
B3B6RvmuDZXWS7cnPmwbIQ,Drum Lessons by Edan Mizrahi,Southeast,,Las Vegas,NV,89123,36.0357,-115.153,5,3,1
B5T9QeLjvvD3D_GJs1z66g,MetricWerks,,,Las Vegas,NV,,36.175,-115.136,3.5,5,1
BACPsU4WL0gXFPm2zSGXWw,DNS Glass,,,Las Vegas,NV,89106,36.1923,-115.159,4.5,6,1
BBbYxS_CC0R8xyGi63_OiA,Maximum Audio Video,Westside,,Las Vegas,NV,89149,36.1731,-115.221,5,25,1
bDrozlKqYHUsRfLByczsyQ,Barspirit,,,Las Vegas,NV,89101,36.1697,-115.124,5,5,1
BEXzDHIphC7kluhaSuoeOA,Vanity Lashes,Spring Valley,,Las Vegas,NV,89148,36.0612,-115.29,5,34,1
BF54zFcZGa9gU9Q6AnbGyw,Nostalgia Resources,Westside,,Las Vegas,NV,89145,36.1683,-115.266,5,6,1
bFnB8XppmLON5Soo9898BQ,Xclusive VIP Vegas,,,Las Vegas,NV,,36.175,-115.136,5,17,1
bFtFbc5_Wob6rCwqR3AdBQ,FavorCo,,,Las Vegas,NV,89133,36.18,-115.14,5,10,1
bI8m7NaX7N2evQkxWeDHFQ,Real Estate Assistant Solutions,,,Las Vegas,NV,89131,36.3656,-115.224,5,4,1
bipVXy6DVI0xJaXscBwdXQ,Sauced,Sunrise,,Las Vegas,NV,89104,36.1497,-115.076,4.5,29,0
bjaCZR2MKOfyA_p2zBWhYA,Club Tour Vegas,Northwest,,Las Vegas,NV,89104,36.233,-115.247,4,63,1
bjg8lkT_rWHpE87j6aODFQ,Vegas Valley Air,,,Las Vegas,NV,89014,36.0633,-115.053,5,15,1
bjKn15qfyHZrfZ6N8R7YUA,Amelia C & Co,,,Las Vegas,NV,89130,36.1158,-115.217,5,198,1
BJmIsHZsCbz4EUTSuOBBdg,"KT's Car Spa",,,Las Vegas,NV,89115,36.3194,-115.023,5,6,1
bK2VddQaYGUxr3FeVAzSIA,Paint Masters,Westside,,Las Vegas,NV,89102,36.1463,-115.183,4.5,73,1
bLkGgUOhawJ9wlrpaQM5KQ,Sin City Off Road,Downtown,,Las Vegas,NV,,36.1699,-115.14,4.5,13,1
bMHr_JmQxxrWLZkLVVpa7g,Sawmill Trail,,,Las Vegas,NV,89149,36.355,-115.64,4,5,1
BmQ7Pu5KcfYbpaET_cXzgA,Jayeness,Northwest,,Las Vegas,NV,89130,36.2577,-115.23,2.5,3,1
BngF3_mY7_YqdlVZ8lk4Hg,Bartholomew Photography,Westside,,Las Vegas,NV,89146,36.1356,-115.23,5,24,1
bn_ViqReisnTDVlDvmeHXg,Scruffy To Fluffy,Spring Valley,,Las Vegas,NV,89148,36.0612,-115.29,5,4,1
BoJev6hSkr91BbWDTAO4Eg,Minilicious Cakepops,Eastside,,Las Vegas,NV,89121,36.1166,-115.088,3.5,3,1
bQAF5IxyJN8WqRGt2wLaBA,All Garage Door Services,,,Las Vegas,NV,89103,36.1104,-115.207,5,9,1
bqR9LLbv5KM5lav6e6LgJg,iClean Green,Spring Valley,,Las Vegas,NV,89113,36.0564,-115.266,5,4,1
bQyfXvrtr6VSSmZ0obEqrg,"Joe's Mobile Detailing",Westside,,Las Vegas,NV,89107,36.1688,-115.219,4.5,9,1
BRUoS9ePM25xUEqve30SZg,Green Turf Yard and Pool Service,Westside,,Las Vegas,NV,89145,36.1683,-115.266,1,3,1
BsDf3L7p_O4tEvllQGOq2A,Gun Play Worldwide,Spring Valley,,Las Vegas,NV,,36.0727,-115.27,5,5,1
bU4Hf8PZ_15yuxlHh9vTlA,Carpets clean now,,,Las Vegas,NV,88901,36.18,-115.14,5,4,1
BVNCy0lN_oy4XrYzDKD8XA,Lash On by Elizabeth Nguyen,Spring Valley,,Las Vegas,NV,89148,36.0612,-115.29,5,3,1
BVw376b1qfiqqENUJD6d3Q,Sahara Las Vegas Hotel And Casino,The Strip,,Las Vegas,NV,89109,36.1286,-115.171,2.5,7,0
BWhspaDdGQwZAkXieytvUQ,Gina Louisa Designs,Eastside,,Las Vegas,NV,89121,36.1166,-115.088,5,11,0
bwIdCujhFruS8_8ECA3CLQ,JDog Junk Removal & Hauling NW Las Vegas,Westside,,Las Vegas,NV,89145,36.1683,-115.266,5,13,1
8oSNaQnLGfbFC0uyRUjfCA,The Mad Greek Cafe,The Strip,3049 S Las Vegas Blvd,Las Vegas,NV,89109,36.1314,-115.165,3,24,0
B5tn4zZG8uvcIiZsErWUyQ,All Ways Hair by Toni,Northwest,5855 W Craig Rd,Las Vegas,NV,89130,36.2376,-115.224,5,7,1
8CNNs7jFv0yVptAvnga4xQ,Sticks & Shakes,The Strip,3200 S Las Vegas Blvd,Las Vegas,NV,89109,36.1276,-115.168,4,73,1
aNGcHb8rjFFI9nY_fUgImg,Kona Grill,The Strip,3200 S Las Vegas Blvd,Las Vegas,NV,89109,36.1272,-115.169,4,270,1
AuZDceZUe6wHBvIpr39vtg,Tadashi Shoji - Fashion Show Mall,The Strip,3200 S Las Vegas Blvd,Las Vegas,NV,89109,36.1272,-115.172,5,7,1
7yYexN1Q5ShE_z1MH2TDTw,"Sammy's LA Pastrami & Burgers",Eastside,2191 E Tropicana Ave,Las Vegas,NV,89119,36.1,-115.122,3,407,1
BIBWGO_r_1znnlmLbp4Nxg,Golden Nugget,Downtown,129 E Fremont St,Las Vegas,NV,89101,36.1698,-115.146,3,1710,1
9Y0dDkFEe_spzPqccq2hIw,Pizza Patron,Downtown,2885 E Charleston Blvd,Las Vegas,NV,89104,36.1582,-115.11,3.5,5,0
A7jbtXYFAZhErOW7xIQinA,"Mother's Korean Grill",Chinatown,4215 Spring Mountain Rd,Las Vegas,NV,89102,36.1254,-115.196,3,283,1
81wSXTjyBc3iMeJYWdiIkA,Las Vegas Fruits & Nuts,Southeast,5757 Wayne Newton Blvd,Las Vegas,NV,89119,36.0833,-115.15,4.5,6,0
aIyqvsWX2NPCVjW4EOTHFQ,Flatbreadz,Southeast,5757 Wayne Newton Blvd,Las Vegas,NV,89119,36.0848,-115.152,2.5,45,1
bG8OeTrW5T7pRaDgKKUNAQ,Wolfgang Puck Express,Southeast,5757 Wayne Newton Blvd,Las Vegas,NV,89111,36.0824,-115.136,2.5,74,1
BIbjBxoiJLS8CnNsSP64TQ,360 Gourmet Burrito,Southeast,5757 Wayne Newton Blvd,Las Vegas,NV,89119,36.0829,-115.151,1.5,139,1
bLieCqMMt4la2i8M2v1TUg,"Jersey Mike's Subs",Southeast,5757 Wayne Newton Blvd,Las Vegas,NV,89139,36.082,-115.148,3.5,37,1
bFtSi3mMJtUSjqd_fOQTIA,Suncoast Showroom,Westside,9090 Alta Dr,Las Vegas,NV,89144,36.1691,-115.291,4,13,1
7bSNkoyhQNzg08iFLqOH5Q,One Drunk Puppy,Southwest,3333 Blue Diamond Rd,Las Vegas,NV,89139,36.0404,-115.183,3,5,1
A6lKCuTrDSJ_eFKyumZCJQ,WuHu Noodle,Southwest,3333 Blue Diamond Rd,Las Vegas,NV,89139,36.0413,-115.183,4,106,1
bAuqQfgFl7kMqhftvCJcTQ,7-Eleven,Eastside,3716 S Paradise Rd,Las Vegas,NV,89169,36.1215,-115.155,3,17,1
bAhgP8iVP7gw26KjpZ1miw,Starbucks,,1650 N Buffalo Dr,Las Vegas,NV,89128,36.19,-115.259,2,4,1
94GNGMxmruuqRLRhLqllWw,"Wendy's",Westside,8900 W Charleston Blvd,Las Vegas,NV,89117,36.1595,-115.29,3,47,1
A6rPIkIzxIeriuI4FFwxnw,"Joey's Pizza",,3310 S Nellis Blvd,Las Vegas,NV,89121,36.1293,-115.064,3,51,1
an97jMgR4kOHXOPMcboWRw,188 Restaurant,,4180 S Jones Blvd,Las Vegas,NV,89103,36.1129,-115.224,4,8,0
aUafIYizHCm1raaUH9Zbsg,The Front Row Lounge,,4180 S Jones Blvd,Las Vegas,NV,89103,36.1129,-115.224,3.5,10,1
A9oMOgubD4gwPcb10DrPTQ,Fox and Hound Tattoo,The Strip,2000 S Las Vegas Blvd,Las Vegas,NV,89104,36.1474,-115.155,4.5,26,0
azciebW9VvZoPDz7rdo3TA,Chicago Hot Dogs & Subs,The Strip,2000 S Las Vegas Blvd,Las Vegas,NV,89104,36.1475,-115.156,2,15,1
brB2AfUTKumrRNanOZVw4w,Scarlet Bar,,4321 W Flamingo Rd,Las Vegas,NV,89103,36.1151,-115.194,4,16,0
966W5oXOBW0ZWhNYy0yjcA,"Wendy's Noodle Cafe",Chinatown,3401 S Jones Blvd,Las Vegas,NV,89146,36.1275,-115.225,4,519,1
bPKT1uKJ20bd7BlqklMR4Q,Kenny the Bartender At Rumor Hotel,Eastside,455 E Harmon Ave,Las Vegas,NV,89169,36.1076,-115.154,5,3,0
9NrsFCuGGPJJGCZGP0T2mA,The Champion Center of Las Vegas,Sunrise,3900 E Bonanza Rd,Las Vegas,NV,89110,36.1742,-115.091,2.5,3,1
7sb2FYLS2sejZKxRYF9mtg,Sakana,Eastside,3949 S Maryland Pkwy,Las Vegas,NV,89119,36.1171,-115.138,4,1116,1
85gYSNxRpFIbQ3JVcudsVw,Pizza Hut,,4870 Boulder Hwy,Las Vegas,NV,89121,36.1154,-115.068,2.5,21,1
7xEgy2btCKLdTe1vD14ABw,Johnny Rockets,The Strip,3377 S Las Vegas Blvd,Las Vegas,NV,89109,36.1212,-115.168,3,49,1
BEplfZTUzYwApjMUaOA12w,Cañonita,The Strip,3377 S Las Vegas Blvd,Las Vegas,NV,89109,36.1219,-115.169,4,649,1
at69MquP_MRqzWEohXlJLA,Brass Lounge,Downtown,425 Fremont St,Las Vegas,NV,89101,36.1692,-115.141,3,51,0
7gjYJ6leqm2IMJXNpKvIlw,"Capriotti's Sandwich Shop",Southeast,7291 S Eastern Ave,Las Vegas,NV,89119,36.0575,-115.12,3,74,1
BcgXNY9SzSyIstpEFb9tcg,Walmart,Spring Valley,7200 Arroyo Crossing Pkwy,Las Vegas,NV,89113,36.0647,-115.249,3,59,0
ADyBxiY1BBR8149h9TVi5A,Toy Shack,Downtown,450 Fremont St,Las Vegas,NV,89104,36.1699,-115.141,3.5,137,1
7EG0PfwZZQulDGMj7VznwQ,United States Postal Services,Northwest,8350 W Cheyenne Ave,Las Vegas,NV,89129,36.2198,-115.275,1.5,4,1
9GPTELAPPpT5vUxad9AoCw,Red Ribbon Bakeshop,Eastside,3890 S Maryland Pkwy,Las Vegas,NV,89119,36.1181,-115.136,4,43,1
9XelmxS5q9tv7uClvjGqMg,Seafood City Supermarket,Eastside,3890 S Maryland Pkwy,Las Vegas,NV,89119,36.1182,-115.136,3.5,189,1
A26hK0LDXOyRaIbDdbel9g,Emerald at Queensridge,Westside,891 S Rampart Blvd,Las Vegas,NV,89145,36.1633,-115.293,4,79,1
BlVdr6mu2jkc5YNaPcSKZQ,Clear Quality Auto Glass,Southwest,8095 S Rainbow Blvd,Las Vegas,NV,89113,36.0418,-115.244,4,15,1
BGcrYtRjOc6eWtxOpD9cWQ,"Geri's Olde Philadelphia Restaurant",Eastside,3430 E Tropicana Ave,Las Vegas,NV,89121,36.1006,-115.099,4,45,0
AOaPB7XYFcXx5xkh0ldM1w,Lush,The Strip,3663 S Las Vegas Blvd,Las Vegas,NV,89109,36.1108,-115.171,4.5,32,1
99GGf5xXEuLzXVIaAPL5Ug,Los Prados Golf Course,Northwest,5150 Los Prados Cir,Las Vegas,NV,89130,36.2534,-115.216,4.5,16,1
AnXovUgUHJap3QaDRnjL1w,Blueberry Hill Family Restaurant,Eastside,3790 E Flamingo Rd,Las Vegas,NV,89121,36.1162,-115.092,4,331,1
BpOsHF3VUeiZhzvP2BLuSw,PSI Seminars - Las Vegas,,4001 S Decatur Blvd,Las Vegas,NV,89147,36.1158,-115.209,3,6,1
BI3kK6a6ko6yfz9TviQ7Aw,Fortune Hotel & Suites,Eastside,325 E Flamingo Rd,Las Vegas,NV,89169,36.1133,-115.158,2,145,1
8IEay5jgk3FOTur5tUvsaQ,eatwell,The Strip,3595 S Las Vegas Blvd,Las Vegas,NV,89109,36.115,-115.172,4.5,9,1
8bYXg27QEoAx7us15eIL5g,"Applebee's Neighborhood Grill & Bar",Westside,4605 W Charleston Blvd,Las Vegas,NV,89102,36.1586,-115.204,2.5,86,1
8RFT1woy0WnTp62ndVJgow,The Blue Skillet,Sunrise,5000 E Bonanza Rd,Las Vegas,NV,89110,36.1728,-115.064,3.5,66,1
9lNJcl0DV9xRhp5d2fId0g,ampm,Centennial,7251 W Azure Dr,Las Vegas,NV,89130,36.273,-115.252,1.5,7,1
9lVwit0qe1x6jKogS2rFdw,Opportunity Village - Ralph And Betty Engelstad Campus,Spring Valley,6050 S Buffalo Dr,Las Vegas,NV,89113,36.0786,-115.259,5,4,1
AqfEIxefqdArIWf9YUVAtQ,Omelet House,,6520 Boulder Hwy,Las Vegas,NV,89122,36.0827,-115.032,4,225,1
BS2Y5IZiCOHBebHMEU2dEQ,Claim Jumper,Eastside,335 Hughes Center Dr,Las Vegas,NV,89169,36.115,-115.157,3.5,9,1
8JxhnIJyOOR4qpqhRr0eiw,"Carl's Jr",Sunrise,2350 S Nellis Blvd,Las Vegas,NV,89104,36.1464,-115.065,2.5,10,1
aNe8ofTYrealxqv7VtFTuw,Sierra Gold,Spring Valley,6515 S Jones Blvd,Las Vegas,NV,89118,36.0703,-115.225,3.5,215,1
7ZUYzw56X2WPcjmEWI6zIA,"Trader Joe's",Westside,2101 S Decatur Blvd,Las Vegas,NV,89102,36.1487,-115.21,4.5,239,0
82Hqn6Ur6eSJ8UvGTZIjqg,Kay Jewelers,Westside,4300 Meadows Ln,Las Vegas,NV,89107,36.1725,-115.197,2,12,1
AGN788ObhwXu7rb8MEejIA,Sheik Shoes,Westside,4300 Meadows Ln,Las Vegas,NV,89107,36.1723,-115.196,1.5,4,1
B2WB2PbQ6iPq26qgRe0TQQ,"Victoria's Secret Stores",Westside,4300 Meadows Ln,Las Vegas,NV,89107,36.1723,-115.196,3,29,1
bLJYffXWVnXBrkdsH4Wn5w,EXPRESS,Westside,4300 Meadows Ln,Las Vegas,NV,89107,36.1723,-115.196,4.5,3,1
As9LWKTKTP2gUNHAdXZQLA,Jlon Lash Studio,Southwest,7575 S Rainbow Blvd,Las Vegas,NV,89139,36.0509,-115.244,5,13,1
9G0ETTCB7RUhbUZJUPm3Tg,Target,Centennial,6480 Sky Pointe Dr,Las Vegas,NV,89131,36.2801,-115.264,3.5,53,1
9DoLCvy4qGglN9dE5lmb5Q,The Filament,Downtown,200 Fremont St,Las Vegas,NV,89101,36.1708,-115.144,3.5,6,1
8chcaZIRlP4p5anpzUB3FQ,Dirty Fork,Spring Valley,3655 S Durango Dr,Las Vegas,NV,89147,36.124,-115.279,3.5,198,1
9vz7_kzT9KtECWgI9kS0Tw,Flawless Skin By Dorit,Spring Valley,3655 S Durango Dr,Las Vegas,NV,89147,36.1233,-115.28,5,28,1
AT2_dZMSETB5JRJssKLUNA,Groomingdales,Spring Valley,3655 S Durango Dr,Las Vegas,NV,89147,36.1233,-115.28,2.5,51,1
9kCG5bJ3fT7gR29Gw1suiQ,Pho Nhu  Y,Chinatown,4355 Spring Mountain Rd,Las Vegas,NV,89102,36.1259,-115.198,2,8,0
bcJmbFHVAkLFqhJbUTdbyQ,Crown Bakery,Chinatown,4355 Spring Mountain Rd,Las Vegas,NV,89102,36.1259,-115.198,4,312,1
8eSmXnZG0N1GRsqiFeU9uA,Yogurtland,Southeast,6587 Las Vegas Blvd,Las Vegas,NV,89119,36.0675,-115.178,4,147,1
9gXhs9peDtrjWGdUlytYog,Quickee Burgers,Northwest,4371 N Rancho Dr,Las Vegas,NV,89130,36.2577,-115.23,2.5,37,0
7tcL_eGAnUe4Kc_rH9UaEg,Las Vegas Chapel of Love,,1501 W Sahara Ave,Las Vegas,NV,89102,36.1437,-115.17,5,4,1
amwEhW6y9PZtq5ZYNJhQBA,Barcelona Tapas Restaurant,,1501 W Sahara Ave,Las Vegas,NV,89102,36.1437,-115.17,4,83,1
7SLZwNRhc2bpUXQXLypTTg,Burger King,Northwest,6080 W Craig Rd,Las Vegas,NV,89130,36.2396,-115.228,1.5,10,1
Bb75P8jpxGGtFUzKbA7XFg,"Pop N' Sons",Downtown,1238 S Las Vegas Blvd,Las Vegas,NV,89104,36.1556,-115.15,5,7,1
9ehTNgvu0vZgHjWkQqF6KQ,Macayo Vegas,Downtown,1741 E Charleston Blvd,Las Vegas,NV,89104,36.1592,-115.126,3,60,1
ARc6rfAJP0T55EVWfvB1hQ,La Belle Nail Spa,,9480 S Eastern Ave,Las Vegas,NV,89123,36.0174,-115.117,4,108,1
8olG8J91NG_QU92WHG5QfA,Amore Taste of Chicago,Spring Valley,3945 S Durango Dr,Las Vegas,NV,89147,36.1191,-115.28,4,617,1
7vWb1Afpm2arr8NCaE_EyQ,Ogden Mart,Downtown,823 E Ogden Ave,Las Vegas,NV,89101,36.1687,-115.136,4.5,8,1
a3jFGgoWbPkPGENEafiXwg,"Binion's Cafe",Downtown,128 Fremont St,Las Vegas,NV,89101,36.1715,-115.144,3,160,1
8C2oUFZ3WLumju4BJIdQbw,Buy Low,,1061 W Owens Ave,Las Vegas,NV,89106,36.1866,-115.155,3.5,4,1
9iOyAocY_osN4zGCFzBdcQ,Green Valley Grocery,,3680 W Tropicana Ave,Las Vegas,NV,89103,36.1014,-115.188,3.5,3,1
bM3aI4lujkKeECEzqSOfeQ,Walk In Salon by Robert Cromeans,Southeast,3930 S Las Vegas Blvd,Las Vegas,NV,89119,36.0878,-115.138,4.5,94,1
AcRqSZIaehtjSQJSqZZytA,Terrible Herbst,Summerlin,10890 W Charleston Blvd,Las Vegas,NV,89135,36.1596,-115.333,3.5,80,1
72HxE_cBs8mQC2ONF22G0g,Target Pharmacy,Southwest,4100 Blue Diamond Rd,Las Vegas,NV,89139,36.0408,-115.195,5,4,1
anrLWKAKm3hFLcJpbhEDUg,IHOP,Summerlin,9651 Trailwood Dr,Las Vegas,NV,89134,36.1911,-115.307,2.5,58,1
8rZwiRkayfpWjukaa9qfQQ,Shell Gas Stations,Summerlin,7951 Vegas Dr,Las Vegas,NV,89128,36.1884,-115.269,3.5,3,1
BmSJ6C7Y9s3tHotRetVbmA,U.S. Bank,Southeast,2385 E Windmill Ln,Las Vegas,NV,89123,36.0404,-115.119,3.5,3,1
7FLHJMOYszFPCqK3tg5umA,Sakun Thai,Southeast,1725 E Warm Springs Rd,Las Vegas,NV,89119,36.0571,-115.129,3.5,132,0
aEtbk_LuJREjm66jKmCQRw,LUV Lounge,Southeast,1725 E Warm Springs Rd,Las Vegas,NV,89123,36.0568,-115.129,5,26,1
aidcfUzZLOjWgwlxfv3UlA,"Tony Big's Pizza N Pasta",Spring Valley,7150 S Durango Dr,Las Vegas,NV,89113,36.0584,-115.278,3,102,1
8QekR2LQrhNB7rh_oa5mNA,Pit Stop Chevron,,5325 S Decatur Blvd,Las Vegas,NV,89118,36.0932,-115.208,3.5,8,1
7NvIgf7XW55OKa5ZU7gw8Q,Arandas Taqueria,Sunrise,2040 N Nellis Blvd,Las Vegas,NV,89115,36.197,-115.062,4,23,1
7gpoPyCWRKF0pySEMjJg8g,"Fabulous Freddy's",Centennial,7155 Grand Montecito Pkwy,Las Vegas,NV,89149,36.2914,-115.285,2.5,164,1
8SstN1jl3GSPo9clSoiWQw,Valvoline Instant Oil Change,Centennial,7155 Grand Montecito Pkwy,Las Vegas,NV,89149,36.2911,-115.285,5,72,1
8zh9Uts1H32Cqfbar44TLw,El Birotazo,Sunrise,4262 E Charleston Blvd,Las Vegas,NV,89104,36.1593,-115.082,4,45,1
bK70PtUK5nGGLzP7tChaeg,"Putter's Bar & Grill",Eastside,3330 E Tropicana Ave,Las Vegas,NV,89121,36.1007,-115.103,3.5,21,1
7I4TUpw38kLnkuQkoe0QuQ,TA Travel Center,Southwest,8050 Dean Martin Dr,Las Vegas,NV,89139,36.043,-115.188,1.5,18,1
aEswvENK_RJnPbcJPSvAjA,Rum Runner Lounge,Eastside,1801 E Tropicana Ave,Las Vegas,NV,89119,36.1001,-115.127,4,88,1
azzs6H7CcIHt_acKJF6UfQ,Min Sok Chon,Eastside,1801 E Tropicana Ave,Las Vegas,NV,89119,36.1002,-115.127,4,24,0
BCkOhklc0cf2LLjz1Yb9jQ,Triple 7 Thrift Shop,Eastside,1801 E Tropicana Ave,Las Vegas,NV,89119,36.1001,-115.127,2,4,0
9xWpBYYOxTPaVQKL3J8lMw,Albertsons,Sunrise,5881 E Charleston Blvd,Las Vegas,NV,89142,36.1585,-115.045,3,22,1
7FWFzCLx8y4TLCGHSV83yQ,Red Persimmon Nails,Westside,8470 W Desert Inn Rd,Las Vegas,NV,89117,36.1299,-115.276,3,45,1
7k6uHs6oPyh5AuaqrhC5yw,"Emjay's New York Pizza",Southwest,7835 S Rainbow Blvd,Las Vegas,NV,89113,36.0458,-115.244,3.5,7,0
A9cpN5TtYvJcB25pjLxkpQ,Subway,Summerlin,10217 W Charleston Blvd,Las Vegas,NV,89135,36.1588,-115.317,4,26,1
8DAw1T1DA2JqvU1zAByGKg,Rebel Oil Company,Spring Valley,4880 W Russell Rd,Las Vegas,NV,89118,36.087,-115.208,2.5,5,1
7lODGqFQUDNzFd6NKyws0w,Sean Patricks Pub,Spring Valley,8255 W Flamingo Rd,Las Vegas,NV,89147,36.1143,-115.271,3.5,57,1
Bo6JrUUD7aIyjhmaz9M9kw,Koolthai Restaurant,,3185 S Highland Dr,Las Vegas,NV,89109,36.132,-115.177,3.5,6,0
9WVNvQ1UhzXVMihF2Rhuiw,Rigos Taco,Westside,3140 S Valley View Blvd,Las Vegas,NV,89102,36.1332,-115.19,3.5,27,1
bgx6gYdktqEoQwBdo5lRbA,"Serrano's Mexican Restaurant",Westside,136 S Rainbow Blvd,Las Vegas,NV,89145,36.1726,-115.246,4.5,143,1
9NGQgyR3ORsMxEWIb6TvWA,Body Spa Salon,Summerlin,10300 W Charleston Blvd,Las Vegas,NV,89135,36.1606,-115.321,4.5,18,1
9VdFxge9M0CLPvWxnfBY3Q,Serenity Spa,Southeast,8601 S Las Vegas Blvd,Las Vegas,NV,89123,36.035,-115.149,4.5,12,1
aNZfRZQc6XWh3jfsDvBKng,Mint Clean Windows Cleaning,Westside,3111 S Valley View Blvd,Las Vegas,NV,89102,36.132,-115.192,5,19,1
8lZtLSeJVg28Gb75iklmmQ,East Side Pizza,Westside,1000 S Rampart Blvd,Las Vegas,NV,89145,36.1605,-115.29,3,126,0
9UZbY3FxhpNZ8sVWcYON6A,Cicis,Southeast,2415 E Tropicana Ave,Las Vegas,NV,89121,36.0987,-115.119,3,113,1
9edPSkfXKsJmkZYIaOmA7Q,Las Vegas South Premium Outlets,Southeast,7400 Las Vegas Blvd S,Las Vegas,NV,89123,36.0539,-115.169,3.5,393,1
AcsDxgF5SFCCMTxb5MJycA,Kay Jewelers South,Southeast,7400 Las Vegas Blvd S,Las Vegas,NV,89123,36.0524,-115.169,2,4,1
aHEdPu_F941X_qQHboxhMA,Gymboree Outlet,Southeast,7400 Las Vegas Blvd S,Las Vegas,NV,89123,36.0524,-115.169,2,7,1
aQDyRY55pTHE6OsbELsHzg,Kenneth Cole Outlet,Southeast,7400 Las Vegas Blvd S,Las Vegas,NV,89123,36.0524,-115.169,3,5,0
a2OCO4yHDEifuKzjor_yRQ,"PT's",Southeast,3470 E Sunset Rd,Las Vegas,NV,89120,36.0718,-115.099,3,44,1
7kXrUSjG67NitjRfRFn9cw,"McDonald's",,7530 W Washington Ave,Las Vegas,NV,89128,36.1817,-115.256,2,53,1
8kW60GovVJJWdyA0AyS0OQ,Huntridge Tavern,Downtown,1116 E Charleston Blvd,Las Vegas,NV,89104,36.1582,-115.138,4.5,65,1
9f68hfHK6gNyHWmt9guiJw,Mariscos Vallarta,Eastside,4425 E Tropicana Ave,Las Vegas,NV,89121,36.0999,-115.078,4,44,1
9hEPwq1GmU1dp3ZyBB9ASQ,"PT's",,6235 S Decatur Blvd,Las Vegas,NV,89118,36.0765,-115.209,3,42,1
axfGq2ooUSB9MpL1RQTmeQ,Panda Express,Southeast,7470 S Las Vegas Blvd,Las Vegas,NV,89123,36.054,-115.172,2.5,36,1
anQSLdujUOp0sTCmIBi2Tg,"Piero's Italian Cuisine",Eastside,355 Convention Center Dr,Las Vegas,NV,89109,36.132,-115.156,4,348,1
94BEy7wGKmrOC7sjSHMisw,Charlies  Lakeside Restaurant & Lounge,The Lakes,8603 W Sahara Ave,Las Vegas,NV,89117,36.1435,-115.279,3.5,35,1
9uRrzqQaq9XwW9lLj7oBxw,IHOP,,5280 E Craig Rd,Las Vegas,NV,89115,36.241,-115.058,3,47,1
A5Rkh7UymKm0_Rxm9K2PJw,Yard House,Southeast,6593 Las Vegas Blvd S,Las Vegas,NV,89119,36.0687,-115.178,4,1204,1
Ax2JxfCUjfBkRxcqfA4QLw,Whole Foods Market,,7250 W Lake Mead Blvd,Las Vegas,NV,89128,36.1975,-115.25,3.5,132,1
95ASq_FH5hLT1bA3fdISqw,Burger King,,4815 W Flamingo Rd,Las Vegas,NV,89103,36.115,-115.206,2,16,1
9dz6ZYUDCqtD67LSPTLApQ,"McDonald's",Spring Valley,5200 S Fort Apache Rd,Las Vegas,NV,89148,36.0993,-115.298,2.5,21,1
8wFiWvlfOVt1zvAvsoLw2g,La Bonita Taco Shop,Eastside,2500 E Desert Inn Rd,Las Vegas,NV,89169,36.131,-115.116,3.5,6,1
7rzbvFZv2pMhAu2vJU0ZGA,Sport Cut,Chinatown,4840 Spring Mountain Rd,Las Vegas,NV,89102,36.1266,-115.207,3,8,1
AZlnpvILz5cEWJifjr2CSQ,Roma Deli II and Wine Shop,Westside,8524 W Sahara Ave,Las Vegas,NV,89117,36.1445,-115.278,4,142,1
7Zy5LURpW0VwmXqdJZjP3w,7-Eleven,,2350 N Rainbow Blvd,Las Vegas,NV,89108,36.2029,-115.242,2,6,1
86stmK3Vm2f5W6PdyvuLrQ,"Applebee's Neighborhood Grill & Bar",Westside,8730 W Charleston Blvd,Las Vegas,NV,89117,36.1596,-115.286,2.5,85,0
7ZPMngvH89iNF0RzFiIEqw,Green Valley Grocery,Chinatown,3711 S Valley View Blvd,Las Vegas,NV,89103,36.1223,-115.191,2.5,5,1
Bl7K6qsJDdSaLZs7eKlufw,Green Valley Grocery,Spring Valley,4480 S Durango Dr,Las Vegas,NV,89147,36.1078,-115.279,3,6,1
8K3CRM4COa0SSBEvli0fJQ,Paymons Mediterranean Cafe & Hookah Lounge,Westside,8380 W Sahara Ave,Las Vegas,NV,89117,36.1448,-115.274,3.5,454,1
7OLZkhIPoWIfnt86vjqMyw,Cox Business,,1700 Vegas Dr,Las Vegas,NV,89106,36.1885,-115.163,1,6,1
aHFkZDm8g27zpzydNE8OMg,7 Sinful Subs,University,4632 S Maryland Pkwy,Las Vegas,NV,89119,36.105,-115.136,4.5,85,1
AztVIokc5VtP4m8r6kSnWw,Subway,Southwest,4860 Blue Diamond Rd,Las Vegas,NV,89139,36.0341,-115.207,2,8,1
8menaxER6kxM_Lyi5tBmSA,Subway,The Strip,3355 Las Vegas Blvd,Las Vegas,NV,89109,36.1212,-115.169,1.5,5,1
BqPDyBgRnvPWCTcMjonnxA,The Shave Shack,Spring Valley,7095 S Durango Dr,Las Vegas,NV,89147,36.0594,-115.28,4,11,0
aUdkb2rSJ8x3gCOLhovy4A,Ballin Fades Barber Shop,,2730 S Rancho Dr,Las Vegas,NV,89102,36.1397,-115.176,4,28,1
a192hdM0_UVCYLwPJv1Qwg,Casa Don Juan  - Downtown,Downtown,1204 S Main St,Las Vegas,NV,89104,36.1572,-115.154,4,759,1
aSHTlWB56c3bWOsRDIj_Hg,Agua El Manantial,Downtown,1852 E Charleston Blvd,Las Vegas,NV,89104,36.1588,-115.124,4.5,9,1
9SHoWGXsGOCa5hOjBOzPtg,"China Joe's",,6126 W Lake Mead Blvd,Las Vegas,NV,89108,36.1958,-115.225,2,42,1
B19KKE75ZxqoR3EDuvA1qw,China Star,Westside,4595 W Charleston Blvd,Las Vegas,NV,89102,36.1586,-115.203,3,69,1
7KkgMcbVaetryW1wwpzvvA,Cafe Rio,Northwest,5765 Centennial Center Blvd,Las Vegas,NV,89149,36.2648,-115.258,3.5,153,1
7RidnmyYyH0cfcX2x7buag,Siena Bistro,South Summerlin,10575 Siena Monte Ave,Las Vegas,NV,89135,36.1079,-115.325,4,14,1
bw_bCNXNBrgarlmrgURkoA,"Wendy's",Sunrise,990 N Nellis Blvd,Las Vegas,NV,89110,36.1775,-115.062,2.5,19,1
8OWodRBZxirvF3kGC6IHig,Best Western Plus Las Vegas West,The Lakes,8669 W Sahara Ave,Las Vegas,NV,89117,36.1425,-115.281,3.5,28,1
axmTTwzbbRt8u3ZWWXsMEw,"Putter's Bar & Grill",,5750 S Decatur Blvd,Las Vegas,NV,89118,36.0853,-115.207,4,12,1
ajwGl90CuCZac3BKWY1ShQ,"McDonald's",Southeast,8120 S Eastern Ave,Las Vegas,NV,89123,36.0419,-115.118,2.5,32,1
7hO3MNEJR25wq22bP9G1IA,Walmart Supercenter,Southeast,3075 E Tropicana Ave,Las Vegas,NV,89121,36.098,-115.108,2.5,82,1
AkdyGTQX8gO3J24nPlww_w,The Steakhouse at Treasures,,2801 Westwood Dr,Las Vegas,NV,89109,36.14,-115.174,4.5,7,1
b9lGo4hvKBFravd3iSNN9g,Starbucks,Centennial,6371 N Decatur Blvd,Las Vegas,NV,89130,36.2734,-115.21,3,17,1
bDUvTOwviImDUIY7EERCgA,"Gold's Gym",,9310 S Eastern Ave,Las Vegas,NV,89123,36.0203,-115.117,3,41,0
8X2M96Ta_itEvlyEmGFvYQ,Stewart Market,Downtown,2021 Stewart Ave,Las Vegas,NV,89101,36.1668,-115.121,4,4,1
bKbYRUZKDYonSPOjzchJJg,Veggie Delight,Chinatown,3504 Wynn Rd,Las Vegas,NV,89103,36.126,-115.194,4,246,1
7YssNqJaJCMnIyabbqjDXQ,The Rockhouse,The Strip,3535 S Las Vegas Blvd,Las Vegas,NV,89109,36.1183,-115.17,3.5,117,0
aG929IhHaIuzZ2FX9yLI7g,Fairfield Inn & Suites by Marriott Las Vegas South,,5775 Dean Martin Dr,Las Vegas,NV,89118,36.0845,-115.184,4,51,1
87YsVbCN_kfzheY79Fzjkg,Pastry Palace,Westside,4523 W Sahara Ave,Las Vegas,NV,89102,36.1436,-115.202,4,177,1
8S0WItfiVK24ys48FhcSsg,La Hacienda Restaurant,Sunrise,5482 E Lake Mead Blvd,Las Vegas,NV,89156,36.1967,-115.053,4,4,0
7I0PdPXvuMnXkAGzhwF9AQ,S&k Market,Sunrise,1625 N Lamb Blvd,Las Vegas,NV,89115,36.1889,-115.081,4,5,1
AZRUB9twDxhm3JYicAw0NA,U-Swirl Frozen Yogurt,Sunrise,305 N Nellis Blvd,Las Vegas,NV,89110,36.1671,-115.063,3,41,1
APIbThZ8PYfWsdK4Z0D5Rg,Subway,,3991 Dean Martin Dr,Las Vegas,NV,89103,36.1188,-115.182,3.5,8,1
AeOHcC1tKrogRUfKJ8OCqg,Smoothie King,Westside,8000 W Sahara Ave,Las Vegas,NV,89117,36.1443,-115.266,3.5,33,1
A91Vq77dR3yqf6DCHX531g,Wildfire Casino,,1901 N Rancho Dr,Las Vegas,NV,89106,36.1939,-115.192,3,22,1
aU5C1IEkw6ah_kM6IOvnxQ,Vegas Ink,The Strip,3735 S Las Vegas Blvd,Las Vegas,NV,89109,36.1068,-115.171,2.5,35,1
AEzBTGx4oJwJl6vsMjOjTg,Fills,Spring Valley,7110 S Durango Dr,Las Vegas,NV,89113,36.0588,-115.278,2.5,11,1
7njZaRjDXi8anBaGlGQu4g,The Lodge Cactus,Southwest,4660 W Cactus Ave,Las Vegas,NV,89141,35.9989,-115.204,3,106,1
b4qFFDxHdzsNmpM5QmQffg,Sin City Training,Spring Valley,9615 W Flamingo Rd,Las Vegas,NV,89147,36.1124,-115.301,5,10,1
7_F6dA9xh2lydTtr1LCtIQ,Jack In the Box,Westside,2301 S Fort Apache Rd,Las Vegas,NV,89117,36.1467,-115.298,2.5,35,1
93EdKPCH1aFAOBntYy7N6g,"Noreen's Cocktail Lounge",Southeast,2799 E Tropicana Ave,Las Vegas,NV,89121,36.0993,-115.113,4.5,30,1
b5uCtk5iUcdeSWBNAx40Ug,"PT's",Southeast,310 E Warm Springs Rd,Las Vegas,NV,89119,36.0577,-115.159,3.5,19,1
aTvmLm3YfTs_L290fEolEw,"Ori'Zaba's Scratch Mexican Grill",Southeast,1263 E Silverado Ranch Blvd,Las Vegas,NV,89183,36.013,-115.136,3,61,1
8fR3XpJnMQDGopj0_mlsYA,American Nails,Southeast,7380 S Eastern Ave,Las Vegas,NV,89123,36.0557,-115.118,4.5,28,1
bCf9ZhqzNIQougCUZLYcJg,Tech 2U,Southeast,7380 S Eastern Ave,Las Vegas,NV,89123,36.0557,-115.117,4,12,1
BCORM4dEleJXnyPXoaH3HQ,"Giovanni's",Southeast,7380 S Eastern Ave,Las Vegas,NV,89123,36.0559,-115.116,4,19,0
BQKPbuILIAG53XtIZ51s5Q,"Original Tommy's Hamburgers",Northwest,7079 W Craig Rd,Las Vegas,NV,89129,36.2395,-115.249,3.5,120,1
a4GRh1TlOVhPD401mSPLZg,Wellish Vision Institute,Eastside,2110 E Flamingo Rd,Las Vegas,NV,89119,36.1157,-115.123,4.5,79,1
BUoV8s0j22KD_PzLm8BlkA,Salcianu Bistro,Eastside,2110 E Flamingo Rd,Las Vegas,NV,89119,36.1157,-115.123,4.5,3,1
Asy49gKgikq_NkYsC_7c0Q,"Capriotti's Sandwich Shop",Southwest,11350 Southern Highlands Pkwy,Las Vegas,NV,89141,35.9837,-115.19,2.5,90,1
8shxmij5d2IjGLI_1riVUw,Starbucks,Southwest,8050 S Rainbow Blvd,Las Vegas,NV,89139,36.0426,-115.242,2,15,1
9ieAERCkT_akyrxTS9NQNA,U.S. Bank,Eastside,2655 S Maryland Pkwy,Las Vegas,NV,89109,36.1414,-115.139,3.5,5,0
6zuRum92Zg4G__ml6NceKg,Starbucks,Spring Valley,4055 S Durango Dr,Las Vegas,NV,89147,36.1158,-115.28,3.5,6,1
8k_co_29GX7oYBbhxtR0rA,Hooligans Bar,Westside,1750 S Rainbow Blvd,Las Vegas,NV,89146,36.1528,-115.242,4.5,74,0
b1hFa_KkZlQ_5WWAvQCZbQ,Residence Inn by Marriott Las Vegas South,,5875 Dean Martin Dr,Las Vegas,NV,89118,36.0839,-115.182,4,51,1
7dHYudt6OOIjiaxkSvv3lQ,In-N-Out Burger,Westside,2900 W Sahara Ave,Las Vegas,NV,89102,36.1448,-115.181,4,361,1
8nDEOGVVvReXFJ2zjPh4Pw,"Denny's",,5318 Boulder Hwy,Las Vegas,NV,89122,36.1061,-115.058,2.5,48,1
9M0cQtHWkLNhGxPYt1qakA,Taqueria Santander,Sunrise,5061 E Sahara Ave,Las Vegas,NV,89142,36.1439,-115.064,4,6,0
750iLCqKvDnIWzRSRSUlrg,"Bob's East Side Deli",Southeast,2900 E Patrick Ln,Las Vegas,NV,89120,36.0796,-115.111,4,87,1
7yV8u06N5imF7fmskhhIRg,Rebel Oil Company,Southeast,980 E Warm Springs Rd,Las Vegas,NV,89119,36.0577,-115.142,1.5,6,1
AAcaGYggq4RBbFdEueB2qw,Green Valley Grocery,Spring Valley,6875 W Russell Rd,Las Vegas,NV,89118,36.0846,-115.242,5,3,1
7hXWFtmoJHz63SD8k56a_Q,"Putter's Bar & Grill",Northwest,7790 W Cheyenne Ave,Las Vegas,NV,89129,36.2188,-115.265,3,33,1
bVoc7AIPSWAAJBA2JLPxvQ,Good Timez Billiards,Westside,5740 W Charleston Blvd,Las Vegas,NV,89146,36.1597,-115.22,4,28,1
AbadN65irz8uSL8z6fkoBg,BBQ King,Chinatown,5650 Spring Mountain Rd,Las Vegas,NV,89146,36.1259,-115.219,3,88,1
8gTVVN73LFeWKfA7_HIxRg,Blind Center of Nevada,,1001 N Bruce St,Las Vegas,NV,89101,36.1826,-115.126,3,6,1
9YZZDtrmvdz4PD2iyoRbjQ,"Pandora's Lounge",,608 N Rainbow Blvd,Las Vegas,NV,89107,36.1794,-115.241,3,17,1
8hDKFHyRrILlXp5DfTlSGw,Steak & Spud Factory,Eastside,3480 S Maryland Pkwy,Las Vegas,NV,89169,36.1259,-115.135,3,20,1
9li2xKBUybR_7JGiCwo6Gg,Pizza N Pizza,Eastside,3480 S Maryland Pkwy,Las Vegas,NV,89169,36.1259,-115.135,3.5,26,1
BMHakZmLku05h4UbS6aYLg,"Victoria's Secret Stores",Eastside,3680 S Maryland Pkwy,Las Vegas,NV,89169,36.1235,-115.134,3.5,13,1
79kLlayzpBQG542C7Z7ocQ,Chapa Ghetti,Chinatown,6850 Spring Mountain Rd,Las Vegas,NV,89146,36.1273,-115.241,3,4,0
7gdpCYPKkQqfiWDoTQnHgQ,Sakura Japanese Cuisine,Chinatown,6850 Spring Mountain Rd,Las Vegas,NV,89146,36.1272,-115.241,4,24,1
AQ0U1PzM0BFRXQMmWRZ3pg,Hair By Julia,Chinatown,6850 Spring Mountain Rd,Las Vegas,NV,89146,36.1264,-115.242,5,4,1
7EchNGkZ24_5AFV2c7CsEw,ARCO ampm,Westside,6801 W Charleston Blvd,Las Vegas,NV,89117,36.1587,-115.244,2.5,13,1
AuJ_wBFUiQEhUrsl7k6TPg,Agua El Manantial,,1052 N Rancho Dr,Las Vegas,NV,89106,36.1836,-115.18,4.5,18,1
91QARFSeS6hkTSM91CIMOw,Deja Vu Showgirls,,3247 Industrial Rd,Las Vegas,NV,89109,36.1435,-115.165,3,59,1
anRCYAf7zd17sL9fYZXMbw,Gamestop,Sunrise,2585 S Nellis Blvd,Las Vegas,NV,89104,36.1497,-115.076,2.5,3,0
AN6HjBZeEcLgekQawgmS3w,Jack in the Box,Chinatown,4970 Spring Mountain Rd,Las Vegas,NV,89146,36.1265,-115.209,1.5,10,1
6Z6IyosSMciZtwk8hRLRag,China Mama Restaurant,Chinatown,3420 S Jones Blvd,Las Vegas,NV,89146,36.1269,-115.225,3.5,398,1
8fjF2NIPSM0Ar1hed2tdog,"Gilligan's HideAway",Eastside,2601 Atlantic St,Las Vegas,NV,89121,36.1424,-115.115,4.5,29,0
9_OPjioLbD9Q_zAeHfv6kw,The Red Pot,Southeast,1375 E Tropicana Ave,Las Vegas,NV,89119,36.1004,-115.135,3.5,198,1
bpHeCdmCRFAUZqXT2TMdig,El Sombrero Cafe,Downtown,807 S Main St,Las Vegas,NV,89101,36.1627,-115.151,3.5,59,0
bU9RYLrF77bxO2pSA0Ba7Q,Chipotle Mexican Grill,,2023 E Lake Mead Blvd,Las Vegas,NV,89030,36.1954,-115.119,4,4,1
aBji25npHv54Y5WJiBXX_w,Cilantros Taco Grill,Eastside,2490 E Desert Inn Rd,Las Vegas,NV,89121,36.1301,-115.117,2.5,14,0
AN0bWhisCf6LN9eHZ7DQ3w,Los Olivos Ristorante,Eastside,3759 E Desert Inn Rd,Las Vegas,NV,89121,36.1292,-115.092,4.5,14,1
BHB2tRGZM9RqPxWTLgtPjw,Big Burger,The Strip,2901 S Las Vegas Blvd,Las Vegas,NV,89109,36.1357,-115.162,2.5,3,1
BdzJQypceJ5Bam2P7egoiw,Mr Poké Bowls & Rolls,Westside,2170 S Rainbow Blvd,Las Vegas,NV,89146,36.1481,-115.243,4,113,1
bltTHd3hXKdDUNndcSfqKg,Catherine Oh,,4850 W Flamingo Rd,Las Vegas,NV,89103,36.1168,-115.206,5,3,1
ANSdwcG2_tH5iHdOpokVpQ,El Taquito Restaurant,,2350 E Bonanza Rd,Las Vegas,NV,89101,36.174,-115.118,3,6,0
BcW7Z9lPmOB_8eS2lEuOqQ,Musashi Japanese Steakhouse,Eastside,3900 Paradise Rd,Las Vegas,NV,89169,36.1181,-115.154,4,596,1
9VIzAXz0AZ9cuD26V2HR1A,McCarran International Child Development Center,Southeast,1788 Landing Strip Ave,Las Vegas,NV,89119,36.087,-115.128,4,8,1
8NQNJZgL5bshPkGzQ76SDQ,"Ray's Asian Cuisine and House of Ramen",Eastside,3025 E Desert Inn Rd,Las Vegas,NV,89121,36.1296,-115.109,4,27,0
Ax7qOxh1OKvBOvX_iFRKRw,Food 4 Less,Eastside,3250 E Flamingo Rd,Las Vegas,NV,89121,36.1162,-115.104,3.5,11,0
7x9i4guL9e0M08Z3eQsB_w,Da Vi Nails,,6464 N Decatur Blvd,Las Vegas,NV,89131,36.2777,-115.203,1.5,11,0
BHIIG8miKQo3s7bodp2ICA,Checkers,,6464 N Decatur Blvd,Las Vegas,NV,89131,36.2769,-115.206,1.5,8,1
BjbR39fp7BnurXAq9gNNEg,China Olive,Sunrise,151 N Nellis Blvd,Las Vegas,NV,89110,36.1625,-115.063,2,9,0
ATGZLAWudXt5hQXQ1AVGDQ,SG Bar,Spring Valley,9580 W Flamingo Rd,Las Vegas,NV,89147,36.1156,-115.301,3.5,111,1
agzQqNikDIfbESdH5_dg2g,Brewery Bar & Grill,Southeast,3088 E Sunset Rd,Las Vegas,NV,89120,36.0721,-115.108,3.5,8,0
B0Vm2tge4I2JJlZhD4sl0Q,35 Steaks + Martinis,Eastside,4455 Paradise Rd,Las Vegas,NV,89169,36.1101,-115.154,4,182,0
BCAw9a_kyx2RddRH9tMmKQ,"Mr. Lucky's 24-7",Eastside,4455 Paradise Rd,Las Vegas,NV,89169,36.1091,-115.155,3.5,802,1
AedKwfr0VdNj7Xmx70GW6g,Old School Brewing Company,Westside,8410 W Desert Inn Rd,Las Vegas,NV,89117,36.1298,-115.275,3.5,125,0
aJK0MWXKgXIgQUCM9fqSJQ,"The Original Graziano's Pizza Restaurant",Westside,8410 W Desert Inn Rd,Las Vegas,NV,89117,36.1298,-115.275,3.5,69,0
8fiZjbPMgg4qDSLIdZsWZg,Sunshine Cafe,,1581 N Decatur Blvd,Las Vegas,NV,89108,36.1879,-115.206,4,39,0
BTPw3VyHkhFdVWdzIQLuYQ,Richard Lamoureaux-Martial Arts & Kali & Escrima & JKD,The Lakes,9101 W Sahara Ave,Las Vegas,NV,89117,36.1441,-115.295,5,3,1
7zqmeEgCPfvbxyaKHli6Dw,Jac & Ray,The Strip,3200 Las Vegas Blvd,Las Vegas,NV,89109,36.1272,-115.172,3.5,13,1
8ShU1lLIBZAkrg7Yx1xV8g,Munchies,,6390 W Lake Mead Blvd,Las Vegas,NV,89108,36.1959,-115.233,4.5,5,0
B9M2uY86J7lsSDqA9soT5A,Western Hotel & Bingo Parlor,Downtown,899 Fremont St,Las Vegas,NV,89101,36.1668,-115.137,2.5,11,0
BKS84YsIa29AgW9uPGgdcw,Ruen Thai,Southwest,7377 S Jones Blvd,Las Vegas,NV,89139,36.0552,-115.226,3.5,18,0
7qSJAE_Z6guAGWCtOC7Yag,DMV Made Easy,Spring Valley,8615 W Flamingo Rd,Las Vegas,NV,89147,36.1144,-115.28,4,140,1
96JiWCNyAZwk20VdWe0KGg,Cash 4 Chaos,University,4110 S Maryland Pkwy,Las Vegas,NV,89119,36.1131,-115.137,4,33,1
aQNElmtSzlxFEw2IzSFkgA,Royal Wedding Chapel,Downtown,1215 S Las Vegas Blvd,Las Vegas,NV,89104,36.1558,-115.149,5,13,1
BOG3zyOfNP51N54hxxHi6A,Vegas Vacuum and Sewing,Southeast,9711 S Eastern Ave,Las Vegas,NV,89183,36.0128,-115.119,3,22,1
amSYoVhNNMlJo5_YiJVb4Q,Signature Nails,Spring Valley,10170 W Tropicana Ave,Las Vegas,NV,89147,36.1016,-115.314,4,6,0
78XbdLi5e42XDxgnxuYacg,Ohjah Japanese Steakhouse Sushi & Hibachi Flamingo,Spring Valley,10144 W Flamingo Rd,Las Vegas,NV,89147,36.1154,-115.314,4.5,299,1
8YJOMfdnk42v3PvpkDxJGg,Maribel Mexican Food & More,Southeast,9821 S Eastern Ave,Las Vegas,NV,89183,36.011,-115.121,4,89,0
aivNhZ9sArYQ2XHfCocHng,Dreamland Cafe,Spring Valley,4126 S Rainbow Blvd,Las Vegas,NV,89103,36.1129,-115.242,5,4,1
8StUtYZ3yTCDxMS9439GMQ,Mi Lindo Nayarit Seafood,Southeast,3347 E Russell Rd,Las Vegas,NV,89120,36.0861,-115.102,4.5,3,0
ANfmkeFbBgNRc4AN1bpFaw,Design & Dine,,3175 N Rainbow Blvd,Las Vegas,NV,89108,36.2156,-115.244,4,53,1
a68CnDqn_6qKfplDjQdN_g,Royal Persis,Eastside,2790 E Flamingo Rd,Las Vegas,NV,89121,36.1154,-115.112,4,13,0
alFchsneD8P49cy7aL_TMA,Won Mi,Chinatown,5300 Spring Mountain Rd,Las Vegas,NV,89146,36.1265,-115.214,4,4,0
7PnlaW3zZaszTja8gvNXGQ,Powder and Sun,Spring Valley,4555 S Fort Apache Rd,Las Vegas,NV,89147,36.1064,-115.298,5,38,1
buk0wVdm_42901qeVIoTrg,The Lunch Crew Catering,Westside,544 S Decatur Blvd,Las Vegas,NV,89107,36.1662,-115.206,2,4,1
8sFRqawo8bDDWiaC9wkA5g,Las micheladas,Eastside,3310 S Sandhill Rd,Las Vegas,NV,89121,36.1291,-115.091,5,5,1
7ctSkwRP5GWYHJ9mYBjARQ,Badda Bing,,3500 W Naples Dr,Las Vegas,NV,89103,36.1068,-115.186,2.5,9,0
ASxoWbHKUWBZLh2rWysLcw,Fortune Seafood Restaurant,,4945 W Tropicana Ave,Las Vegas,NV,89103,36.0994,-115.208,2.5,35,0
9HnIGXJcz_5dPP5Mh2IJ4Q,Island Frozen Yogurt,Spring Valley,5415 S Rainbow Blvd,Las Vegas,NV,89118,36.09,-115.243,1.5,3,0
AuYI71ig26n4IJ5j2XRdbw,Identity Hair Salon,Spring Valley,8680 W Warm Springs Rd,Las Vegas,NV,89148,36.0561,-115.281,4.5,77,1
77AfVfvvjfQXslusY8QElg,La Jolla,Eastside,2245 E Flamingo Rd,Las Vegas,NV,89119,36.1144,-115.122,3.5,28,1
9IPwTDuFb_WF3g3iTFM4DQ,"Sam's Ice Cream",Eastside,3760 E Desert Inn Rd,Las Vegas,NV,89121,36.1306,-115.093,4.5,6,0
A42_tYr2vKBU5wMdh01nEQ,Belong Hair Extensions-Carolyn Hart,Westside,8751 W Charleston Blvd,Las Vegas,NV,89117,36.1585,-115.286,4.5,3,0
b2oLwfXjLiGVLDBdsFfOJg,Classylash & Spa Services,Westside,8751 W Charleston Blvd,Las Vegas,NV,89117,36.1585,-115.286,4,14,1
7gIK3en6jVyiColBvlHNPA,"Noble Roman's Take-n-Bake Pizza",Spring Valley,4190 S Rainbow Blvd,Las Vegas,NV,89103,36.1125,-115.243,3,4,0
7MicpBSV72aRbgs2AgCB8Q,Family Dollar,Eastside,860 E Twain Ave,Las Vegas,NV,89169,36.1227,-115.145,2.5,3,1
BN_GVKaX0jnaVI4Ar1iV2w,Straight Up Gaming & Martini Lounge,,4970 S Fort Apache Rd,Las Vegas,NV,89148,36.058,-115.32,3.5,20,0
awAxthsSo0Y8KBQXJhNxvQ,"Harold's Chicken & Fish",Spring Valley,4950 S Rainbow Blvd,Las Vegas,NV,89118,36.0986,-115.243,3.5,31,0
8tMy7yEeNVYylVVFRlPmdQ,Boteco,,9500 S Eastern Ave,Las Vegas,NV,89123,36.0165,-115.117,4.5,72,1
82C_jeRkCXG375tOU6rJrg,Beauty By Chantal Perry,,9550 S Eastern Ave,Las Vegas,NV,89123,36.0147,-115.117,5,11,1
bQ_wtZvMb__OhprY5bF9aQ,Crab Corner,Eastside,4161 S Eastern Ave,Las Vegas,NV,89118,36.113,-115.12,4,388,0
9fTDeI6mApFX52qYJ8z0mw,Dutch Bros. Coffee,Eastside,2840 E Tropicana Ave,Las Vegas,NV,89121,36.1003,-115.112,4.5,626,1
biSsdqExmdvIKiFuowOadg,"Lucky Foo's Restaurant & Bar",Southeast,8955 S Eastern Ave,Las Vegas,NV,89123,36.0265,-115.119,4,311,0
7gcZ2bpd4OCuMDXqJEqPpQ,America,The Strip,3663 Las Vegas Blvd,Las Vegas,NV,89109,36.1107,-115.172,4.5,3,1
8VCyDz3DHrlo5TFt8T1x6Q,"Lady D's Pizzeria",Sunrise,4465 E Sahara Ave,Las Vegas,NV,89104,36.144,-115.077,1,7,0
AdrHuOKie8YMO2Yo9Wqrag,Amanecer Salvadoreno Restaurant,Downtown,1524 S Main St,Las Vegas,NV,89104,36.1531,-115.154,4,14,0
BSbKXrd41LiCmZ_fEMwrOw,Fix8 Fitness Cafe,Eastside,3650 E Flamingo Rd,Las Vegas,NV,89121,36.1158,-115.095,4.5,5,0
8hAGLM_ZQa4CFhzvVcLczQ,"Salt 'N Pepper Southern Comfort Bar and Grill",Westside,440 S Rampart Blvd,Las Vegas,NV,89145,36.1667,-115.287,2.5,34,0
7MMhQfuDtRHWtouYFVvxkQ,Del Mar Cafe,The Lakes,2950 S Durango Dr,Las Vegas,NV,89117,36.1356,-115.279,4,32,0
aziGJau1L9V0CtQ1Cw1v0g,Aldo,Southeast,7400 S Las Vegas Blvd,Las Vegas,NV,89123,36.0549,-115.169,4,6,1
8pLlsYgvrC5SJL1Con8FYw,Baja California Restaurant & Cantina,Westside,1050 S Rampart Blvd,Las Vegas,NV,89145,36.1608,-115.291,3.5,27,0
7fvqqwVzVNGtea6v5f1yVQ,"Bob's Market",,70 E Centennial Pkwy,Las Vegas,NV,89101,36.2768,-115.139,4,15,1
bRR4gsjHv0F_RnRGjQBqlg,"CJ's Italian Ice & Custard",Spring Valley,3555 S Durango Dr,Las Vegas,NV,89147,36.1251,-115.28,4,220,1
9XhPvCEzyIIyiJIB63tJvg,AlkaWater,Northwest,3151 N Rainbow Blvd,Las Vegas,NV,89108,36.2172,-115.245,5,6,1
BKg8YIGX_5YyUczmBAyyCQ,China Passion,Sunrise,2775 S Nellis Blvd,Las Vegas,NV,89121,36.1391,-115.067,4.5,77,1
anMzgqnIh0OPgwMCf4uh2w,Debbie Conway - Clark County Recorder,Downtown,500 S Grand Central Pkwy,Las Vegas,NV,89106,36.164,-115.155,4.5,5,1
arkgHRBReRqIPUP1vuPz4g,Viva Las Arepas,Westside,1134 S Rainbow Blvd,Las Vegas,NV,89146,36.1576,-115.243,4.5,91,1
77W1bMIEvBOFvE8Hx3k3pA,Royal Vacation Suites,The Strip,99 Convention Center Dr,Las Vegas,NV,89109,36.132,-115.163,3,97,1
8qAN6VeVzkQ4sCSOviSRAA,LV Cars Exotic Luxury Car Rentals,The Strip,99 Convention Center Dr,Las Vegas,NV,89109,36.132,-115.163,5,24,1
8_NAyTr8z80SOrHY2wImQA,Save-A-Lot,,6100 Vegas Dr,Las Vegas,NV,89108,36.189,-115.225,4,3,0
dHwv9CyCFSnfuKLvFZqtpQ,Timpano Tavern,The Strip,3355 S Las Vegas Blvd,Las Vegas,NV,89109,36.1229,-115.169,3,12,1
eYyXpE8rq2aObwrNa0mHBg,Kids Quest,South Summerlin,11011 W Charleston Blvd,Las Vegas,NV,89135,36.1564,-115.334,3.5,49,1
cxwQIfMljUhk1yMG8PQLXg,"Charlie's Market Buffet",Westside,740 S Decatur Blvd,Las Vegas,NV,89107,36.1634,-115.207,3,18,1
DyVteo8Blf5gEfC9QbJE9A,"Arizona Charlie's Decatur",Westside,740 S Decatur Blvd,Las Vegas,NV,89107,36.1635,-115.207,2.5,163,1
COevwLqo4kTOXZGqXvs5yQ,Mojito Hut,Eastside,3570 S Las Vegas Blvd,Las Vegas,NV,89109,36.1243,-115.146,5,4,1
cNHZJabFvjU8ZSTJkjpy8Q,Stone Surgeon,Westside,8550 W Charleston Blvd,Las Vegas,NV,89117,36.1599,-115.279,5,3,1
f5sSn5cO4t6mF_mdnzKkyA,Baja Fresh,Northwest,4343 N Rancho Dr,Las Vegas,NV,89130,36.2385,-115.232,2.5,29,1
D2wzjCjf7VUfsSLA9TsWlA,Palazzo Prestige Lounge,The Strip,3325 S Las Vegas Blvd,Las Vegas,NV,89109,36.1242,-115.169,4,8,1
DwvltWVIi9lAmDravDvFYw,Goodwill of Southern Nevada,Northwest,7151 W Craig Rd,Las Vegas,NV,89129,36.2382,-115.25,3.5,3,0
cISQE8tQ29Q043hmY7LT2g,California Hotel-Casino & R V Park,,200 N Main St,Las Vegas,NV,89101,36.1743,-115.145,3,3,1
EUWBT5GDxPC95w9itZ1EHw,Garden Court Buffet,,200 N Main St,Las Vegas,NV,89101,36.1741,-115.145,3.5,478,1
CCRgGKhzxSpl38w7yhqKUw,Noodles,The Strip,3600 S Las Vegas Blvd,Las Vegas,NV,89109,36.1123,-115.176,3,914,1
Dxaz8OxaadecnWol18kAtw,Yellowtail,The Strip,3600 S Las Vegas Blvd,Las Vegas,NV,89109,36.1135,-115.175,3.5,813,1
etid3CozFvEOFcvDwHXsDw,Harvest by Roy Ellamar,The Strip,3600 S Las Vegas Blvd,Las Vegas,NV,89109,36.1109,-115.178,4,280,1
eWcyXTiaexrkvCc3vlFWKA,"Carl's Jr",,1991 N Decatur Blvd,Las Vegas,NV,89108,36.195,-115.207,2,8,1
FEEJ4rK8EZ7cqIvBM5luGg,"Arby's",Spring Valley,3477 S Durango Dr,Las Vegas,NV,89117,36.1275,-115.279,2,25,1
CeNZb__PZ2wdWJfvKwvMbQ,Spa Orleans,,4500 W Tropicana Ave,Las Vegas,NV,89103,36.1022,-115.201,4,8,1
EIat5e4gz0MjHG1Z2SHqcA,Java Vegas Coffee,,4500 W Tropicana Ave,Las Vegas,NV,89103,36.1026,-115.201,3,22,1
fblNi96kc_X37ESAguwPww,Orleans Showroom,,4500 W Tropicana Ave,Las Vegas,NV,89103,36.1045,-115.202,4,20,1
CalbswWuvigtvE2GvP62bw,Wow - World of Wonder,,3700 W Flamingo Rd,Las Vegas,NV,89103,36.1164,-115.185,4.5,61,1
CCKvPGRC1_jOBgDw1ozw5A,"Bikini's Beach & Dance Club",,3700 W Flamingo Rd,Las Vegas,NV,89103,36.1176,-115.188,2.5,8,1
CXW9vFcntk7wu45Mgzy4wg,Aki Matsuri Festival,,3700 W Flamingo Rd,Las Vegas,NV,89103,36.1172,-115.185,3,23,1
